category,id,lat,lng,location,name,subCategory,reviews,Cost
attraction,28331,52.352237,4.987965,Amsterdam,Diemerpark,Park,http://tour-pedia.org/api/getReviewsByPlaceId?placeId=28331,53
attraction,28335,52.356452,4.997056,Amsterdam,Polygoongracht,Pool,http://tour-pedia.org/api/getReviewsByPlaceId?placeId=28335,35
attraction,28336,52.353174,5.004712,Amsterdam,Jachthaven ijburg,Surf Spot,http://tour-pedia.org/api/getReviewsByPlaceId?placeId=28336,18
attraction,28337,52.356383,4.996973,Amsterdam,Tuin Van Vrienden,Garden,http://tour-pedia.org/api/getReviewsByPlaceId?placeId=28337,55
attraction,28341,52.357249,4.995746,Amsterdam,Speeltuin Talbotstraat,Skydiving,http://tour-pedia.org/api/getReviewsByPlaceId?placeId=28341,20
attraction,28343,52.357778,4.992011,Amsterdam,iBurg,Island,http://tour-pedia.org/api/getReviewsByPlaceId?placeId=28343,15
attraction,28344,52.350179,5.005388,Amsterdam,Theo van Goghpark,Park,http://tour-pedia.org/api/getReviewsByPlaceId?placeId=28344,47
attraction,28345,52.355045,4.996358,Amsterdam,Marc's Place,Beer Garden,http://tour-pedia.org/api/getReviewsByPlaceId?placeId=28345,47
attraction,28347,52.355692,4.994743,Amsterdam,Rondje IJburg,Athletics  Sports,http://tour-pedia.org/api/getReviewsByPlaceId?placeId=28347,59
attraction,28348,52.356342,4.994536,Amsterdam,2013,Arcade,http://tour-pedia.org/api/getReviewsByPlaceId?placeId=28348,15
attraction,28353,52.35313,4.996105,Amsterdam,Glijbaan Egelkopstraat,Skydiving,http://tour-pedia.org/api/getReviewsByPlaceId?placeId=28353,25
attraction,28354,52.359097,4.993515,Amsterdam,Speeltuin Dageurrestraat,Skydiving,http://tour-pedia.org/api/getReviewsByPlaceId?placeId=28354,51
attraction,28355,52.355838,4.979512,Amsterdam,AHC IJburg (hockeyclub),Field,http://tour-pedia.org/api/getReviewsByPlaceId?placeId=28355,55
attraction,28356,52.353571,4.999613,Amsterdam,Sem Presserhof Speeltuin,Skydiving,http://tour-pedia.org/api/getReviewsByPlaceId?placeId=28356,28
attraction,28357,52.351168,5.00542,Amsterdam,IJpark,Park,http://tour-pedia.org/api/getReviewsByPlaceId?placeId=28357,54
attraction,28359,52.353161,5.005661,Amsterdam,Haven IJburg,Harbor  Marina,http://tour-pedia.org/api/getReviewsByPlaceId?placeId=28359,52
attraction,28360,52.353834,5.006561,Amsterdam,Amsterdam Dance Centre IJburg,Dance Studio,http://tour-pedia.org/api/getReviewsByPlaceId?placeId=28360,22
attraction,28362,52.353991,5.000551,Amsterdam,Brug jachthaven IJburg,Bridge,http://tour-pedia.org/api/getReviewsByPlaceId?placeId=28362,36
attraction,28363,52.35442,5.00605,Amsterdam,Sluis Jachthaven IJburg,Harbor  Marina,http://tour-pedia.org/api/getReviewsByPlaceId?placeId=28363,47
attraction,28365,52.35931,4.990564,Amsterdam,Joris Ivensplein,Skydiving,http://tour-pedia.org/api/getReviewsByPlaceId?placeId=28365,37
attraction,28367,52.356817,4.979538,Amsterdam,AFC IJburg,Soccer Field,http://tour-pedia.org/api/getReviewsByPlaceId?placeId=28367,36
attraction,28370,52.359027,4.990614,Amsterdam,Magic Circus op IJburg,General Entertainment,http://tour-pedia.org/api/getReviewsByPlaceId?placeId=28370,32
attraction,28371,52.357488,4.989674,Amsterdam,Nijlpaard sluis,Lake,http://tour-pedia.org/api/getReviewsByPlaceId?placeId=28371,16
attraction,28373,52.354403,4.989984,Amsterdam,Pornoboot,Harbor  Marina,http://tour-pedia.org/api/getReviewsByPlaceId?placeId=28373,47
attraction,28374,52.350211,5.000215,Amsterdam,Strand Ijburg,Beach,http://tour-pedia.org/api/getReviewsByPlaceId?placeId=28374,16
attraction,28375,52.354438,4.986849,Amsterdam,Diemerstrandje,Beach,http://tour-pedia.org/api/getReviewsByPlaceId?placeId=28375,28
attraction,28376,52.353166,5.008525,Amsterdam,Surfschool ijburg,Harbor  Marina,http://tour-pedia.org/api/getReviewsByPlaceId?placeId=28376,25
attraction,28384,52.350195,5.005837,Amsterdam,Stormbaan,Athletics  Sports,http://tour-pedia.org/api/getReviewsByPlaceId?placeId=28384,49
attraction,28387,52.358933,4.99076,Amsterdam,Kermis IJburg,Theme Park,http://tour-pedia.org/api/getReviewsByPlaceId?placeId=28387,49
attraction,28388,52.35782,4.989874,Amsterdam,Zanzibar Bar Privé,Bar,http://tour-pedia.org/api/getReviewsByPlaceId?placeId=28388,33
attraction,28395,52.410513,4.748247,Amsterdam,Shoeless open air Ruigoord,Music Venue,http://tour-pedia.org/api/getReviewsByPlaceId?placeId=28395,33
attraction,28396,52.410512,4.74859,Amsterdam,Shoeless OpemAir,Lounge,http://tour-pedia.org/api/getReviewsByPlaceId?placeId=28396,47
attraction,28397,52.409848,4.749388,Amsterdam,Spacen als planeten,Theme Park,http://tour-pedia.org/api/getReviewsByPlaceId?placeId=28397,39
attraction,28398,52.399484,4.745907,Amsterdam,Amsterdamse golf club,Golf Course,http://tour-pedia.org/api/getReviewsByPlaceId?placeId=28398,28
attraction,28402,52.399419,4.745914,Amsterdam,AGC,Golf Course,http://tour-pedia.org/api/getReviewsByPlaceId?placeId=28402,20
attraction,28405,52.405081,4.755878,Amsterdam,Ruigoord Kerk,Bar,http://tour-pedia.org/api/getReviewsByPlaceId?placeId=28405,54
attraction,28406,52.403185,4.759457,Amsterdam,M1,Dive Bar,http://tour-pedia.org/api/getReviewsByPlaceId?placeId=28406,54
attraction,28437,52.419809,4.768558,Amsterdam,United Stevedores Amsterdam,Harbor  Marina,http://tour-pedia.org/api/getReviewsByPlaceId?placeId=28437,35
attraction,28438,52.425456,4.771094,Amsterdam,Amerikahaven,Harbor  Marina,http://tour-pedia.org/api/getReviewsByPlaceId?placeId=28438,36
attraction,28439,52.413517,4.768342,Amsterdam,Tuss'n de Koei'n,Farm,http://tour-pedia.org/api/getReviewsByPlaceId?placeId=28439,30
attraction,28440,52.396119,4.767001,Amsterdam,Heining 21,Strip Club,http://tour-pedia.org/api/getReviewsByPlaceId?placeId=28440,18
attraction,28441,52.396326,4.766315,Amsterdam,Kompleks,Nightclub,http://tour-pedia.org/api/getReviewsByPlaceId?placeId=28441,32
attraction,28442,52.396281,4.768845,Amsterdam,Kompleks,Nightclub,http://tour-pedia.org/api/getReviewsByPlaceId?placeId=28442,45
attraction,28443,52.397576,4.770681,Amsterdam,Martin Gaus Hondenschool,Dog Run,http://tour-pedia.org/api/getReviewsByPlaceId?placeId=28443,15
attraction,28444,52.393096,4.769814,Amsterdam,Geuzenbos,Trail,http://tour-pedia.org/api/getReviewsByPlaceId?placeId=28444,55
attraction,28447,52.384002,4.769806,Amsterdam,Haarlemmerweg,Field,http://tour-pedia.org/api/getReviewsByPlaceId?placeId=28447,22
attraction,28450,52.388514,4.769034,Amsterdam,Hondenschool Martin Gaus,Dog Run,http://tour-pedia.org/api/getReviewsByPlaceId?placeId=28450,50
attraction,28456,52.383873,4.76237,Amsterdam,Aristos Hal Amsterdam,Soccer Field,http://tour-pedia.org/api/getReviewsByPlaceId?placeId=28456,28
attraction,28461,52.388012,4.774149,Amsterdam,De Grote Braak,Skydiving,http://tour-pedia.org/api/getReviewsByPlaceId?placeId=28461,18
attraction,28473,52.378908,4.761494,Amsterdam,De Kwekerij,Farm,http://tour-pedia.org/api/getReviewsByPlaceId?placeId=28473,50
attraction,28486,52.377646,4.774752,Amsterdam,Huisje Tuinpark Osdorp,Garden,http://tour-pedia.org/api/getReviewsByPlaceId?placeId=28486,17
attraction,28487,52.375084,4.770317,Amsterdam,Kooter hooveniers,Farm,http://tour-pedia.org/api/getReviewsByPlaceId?placeId=28487,24
attraction,28488,52.377583,4.775198,Amsterdam,Tuinpark Osdorp,Garden,http://tour-pedia.org/api/getReviewsByPlaceId?placeId=28488,27
attraction,28496,52.375923,4.775552,Amsterdam,our tuinhuisje,Garden,http://tour-pedia.org/api/getReviewsByPlaceId?placeId=28496,28
attraction,28497,52.373496,4.779277,Amsterdam,Volkstuin de Eendracht,Park,http://tour-pedia.org/api/getReviewsByPlaceId?placeId=28497,21
attraction,28511,52.36029,4.766698,Amsterdam,De Boterbloem,Farm,http://tour-pedia.org/api/getReviewsByPlaceId?placeId=28511,19
attraction,28512,52.370207,4.777862,Amsterdam,Konijnenopvang Amsterdam,Stables,http://tour-pedia.org/api/getReviewsByPlaceId?placeId=28512,35
attraction,28513,52.358027,4.765764,Amsterdam,Pocahondas,Farm,http://tour-pedia.org/api/getReviewsByPlaceId?placeId=28513,28
attraction,28514,52.37014,4.777237,Amsterdam,Playreal,Arts  Entertainment,http://tour-pedia.org/api/getReviewsByPlaceId?placeId=28514,48
attraction,28520,52.354094,4.771261,Amsterdam,Middle of Niets,Outdoors  Recreation,http://tour-pedia.org/api/getReviewsByPlaceId?placeId=28520,58
attraction,28521,52.353161,4.771116,Amsterdam,Jachthaven De hooglanden,Harbor  Marina,http://tour-pedia.org/api/getReviewsByPlaceId?placeId=28521,44
attraction,28522,52.359656,4.778675,Amsterdam,Westgaarde Begraafplaats,Boating,http://tour-pedia.org/api/getReviewsByPlaceId?placeId=28522,55
attraction,28524,52.355583,4.760894,Amsterdam,Pius Floris Boomverzorging,Garden,http://tour-pedia.org/api/getReviewsByPlaceId?placeId=28524,44
attraction,28528,52.355773,4.777689,Amsterdam,Nysa's uitlaatplek,Dog Run,http://tour-pedia.org/api/getReviewsByPlaceId?placeId=28528,15
attraction,28531,52.353182,4.771054,Amsterdam,Jachthaven Osdorp,Harbor  Marina,http://tour-pedia.org/api/getReviewsByPlaceId?placeId=28531,42
attraction,28535,52.351522,4.769957,Amsterdam,The Real PlayStation,Skydiving,http://tour-pedia.org/api/getReviewsByPlaceId?placeId=28535,51
attraction,28538,52.353996,4.777176,Amsterdam,Joosbanckerweg 18a,Outdoors  Recreation,http://tour-pedia.org/api/getReviewsByPlaceId?placeId=28538,19
attraction,28539,52.35117,4.773173,Amsterdam,klussie,Zoo,http://tour-pedia.org/api/getReviewsByPlaceId?placeId=28539,25
attraction,28540,52.354702,4.778159,Amsterdam,Hockey,Skydiving,http://tour-pedia.org/api/getReviewsByPlaceId?placeId=28540,36
attraction,28541,52.353761,4.77832,Amsterdam,Speeltuin Seifertplein,Skydiving,http://tour-pedia.org/api/getReviewsByPlaceId?placeId=28541,56
attraction,28543,52.390144,4.780345,Amsterdam,POWER SOUND STUDIO,Music Venue,http://tour-pedia.org/api/getReviewsByPlaceId?placeId=28543,15
attraction,28544,52.389641,4.780023,Amsterdam,Start KP1/3/5/7 (Abberdaan) Amsterdam Shortrally,Plaza,http://tour-pedia.org/api/getReviewsByPlaceId?placeId=28544,53
attraction,28545,52.384184,4.780457,Amsterdam,Voorsterbos,Trail,http://tour-pedia.org/api/getReviewsByPlaceId?placeId=28545,54
attraction,28546,52.38417,4.782602,Amsterdam,De Osdorperbinnenpolder Noord,Park,http://tour-pedia.org/api/getReviewsByPlaceId?placeId=28546,16
attraction,28547,52.383284,4.780957,Amsterdam,Shoeless Open Air,Nightclub,http://tour-pedia.org/api/getReviewsByPlaceId?placeId=28547,33
attraction,28548,52.383316,4.781365,Amsterdam,Shoeless,Music Venue,http://tour-pedia.org/api/getReviewsByPlaceId?placeId=28548,45
attraction,28549,52.383078,4.781992,Amsterdam,Lanterfanten festival,Music Venue,http://tour-pedia.org/api/getReviewsByPlaceId?placeId=28549,57
attraction,28550,52.379358,4.78389,Amsterdam,S.C. Eendracht'82,Soccer Stadium,http://tour-pedia.org/api/getReviewsByPlaceId?placeId=28550,57
attraction,28551,52.379326,4.787112,Amsterdam,Amsterdam Panthers,Athletics  Sports,http://tour-pedia.org/api/getReviewsByPlaceId?placeId=28551,36
attraction,28552,52.379385,4.784794,Amsterdam,S.V. Eendracht,Soccer Field,http://tour-pedia.org/api/getReviewsByPlaceId?placeId=28552,50
attraction,28553,52.377584,4.775838,Amsterdam,Buitenverblijf De Boois,Sculpture Garden,http://tour-pedia.org/api/getReviewsByPlaceId?placeId=28553,19
attraction,28554,52.381651,4.787168,Amsterdam,De Tuinen Van West,Skydiving,http://tour-pedia.org/api/getReviewsByPlaceId?placeId=28554,59
attraction,28555,52.382453,4.79091,Amsterdam,BeeVee Strand,Beach,http://tour-pedia.org/api/getReviewsByPlaceId?placeId=28555,59
attraction,28556,52.380065,4.784313,Amsterdam,Voetbalclub Nieuw-West,Soccer Field,http://tour-pedia.org/api/getReviewsByPlaceId?placeId=28556,37
attraction,28558,52.380405,4.786109,Amsterdam,P & T,Soccer Field,http://tour-pedia.org/api/getReviewsByPlaceId?placeId=28558,54
attraction,28559,52.380481,4.786214,Amsterdam,Young Turks,Soccer Stadium,http://tour-pedia.org/api/getReviewsByPlaceId?placeId=28559,20
attraction,28560,52.378237,4.78468,Amsterdam,Tuinhuisje Van Pauline En Jeroen,Garden,http://tour-pedia.org/api/getReviewsByPlaceId?placeId=28560,34
attraction,28561,52.380415,4.786165,Amsterdam,P&t,Soccer Field,http://tour-pedia.org/api/getReviewsByPlaceId?placeId=28561,51
attraction,28563,52.378767,4.78652,Amsterdam,Nederlandse Rugby BondRugby,Stadium,http://tour-pedia.org/api/getReviewsByPlaceId?placeId=28563,19
attraction,28565,52.374982,4.784981,Amsterdam,Het nieuwe Bijenpark,Garden,http://tour-pedia.org/api/getReviewsByPlaceId?placeId=28565,47
attraction,28566,52.373968,4.785154,Amsterdam,Tigeno Tuincomplex,Skydiving,http://tour-pedia.org/api/getReviewsByPlaceId?placeId=28566,50
attraction,28567,52.378465,4.786017,Amsterdam,A.S.R.V Ascrum,Field,http://tour-pedia.org/api/getReviewsByPlaceId?placeId=28567,38
attraction,28568,52.37881,4.78634,Amsterdam,Oerol,General Entertainment,http://tour-pedia.org/api/getReviewsByPlaceId?placeId=28568,48
attraction,28570,52.368284,4.782871,Amsterdam,Bierbrouwerij De 7 Deugden,Brewery,http://tour-pedia.org/api/getReviewsByPlaceId?placeId=28570,45
attraction,28571,52.361205,4.783733,Amsterdam,Salon Osdorp,Lounge,http://tour-pedia.org/api/getReviewsByPlaceId?placeId=28571,16
attraction,28572,52.367294,4.786627,Amsterdam,Galatasaray Football Academy Amsterdam,Soccer Field,http://tour-pedia.org/api/getReviewsByPlaceId?placeId=28572,60
attraction,28573,52.36122,4.785724,Amsterdam,The Royal,General Entertainment,http://tour-pedia.org/api/getReviewsByPlaceId?placeId=28573,32
attraction,28574,52.356176,4.785478,Amsterdam,Dijkgraafplein • Osdorp,Plaza,http://tour-pedia.org/api/getReviewsByPlaceId?placeId=28574,23
attraction,28575,52.355079,4.78044,Amsterdam,Huis van jody en karen,Comedy Club,http://tour-pedia.org/api/getReviewsByPlaceId?placeId=28575,35
attraction,28577,52.356694,4.784864,Amsterdam,Biljartcentrum Osdorp,Pool Hall,http://tour-pedia.org/api/getReviewsByPlaceId?placeId=28577,44
attraction,28578,52.360317,4.783522,Amsterdam,Sbk,Art Gallery,http://tour-pedia.org/api/getReviewsByPlaceId?placeId=28578,38
attraction,28579,52.360388,4.784702,Amsterdam,Keukenplein,Plaza,http://tour-pedia.org/api/getReviewsByPlaceId?placeId=28579,25
attraction,28580,52.3601,4.785003,Amsterdam,Sport En Judocentrum Osdorp,Comedy Club,http://tour-pedia.org/api/getReviewsByPlaceId?placeId=28580,20
attraction,28581,52.356455,4.785089,Amsterdam,Bankie,Water Park,http://tour-pedia.org/api/getReviewsByPlaceId?placeId=28581,60
attraction,28582,52.360603,4.785933,Amsterdam,De Kroon,General Entertainment,http://tour-pedia.org/api/getReviewsByPlaceId?placeId=28582,34
attraction,28584,52.361816,4.786046,Amsterdam,Biljartcentrum Osdorp,Pool Hall,http://tour-pedia.org/api/getReviewsByPlaceId?placeId=28584,51
attraction,28585,52.356352,4.785076,Amsterdam,Bed Time,Theme Park,http://tour-pedia.org/api/getReviewsByPlaceId?placeId=28585,54
attraction,28586,52.350298,4.780677,Amsterdam,Verel's Poolbar,Hotel Bar,http://tour-pedia.org/api/getReviewsByPlaceId?placeId=28586,55
attraction,28587,52.362754,4.787343,Amsterdam,Manege Het Molenpaardje,Stables,http://tour-pedia.org/api/getReviewsByPlaceId?placeId=28587,42
attraction,28588,52.350449,4.781894,Amsterdam,Passy's Castle,General Entertainment,http://tour-pedia.org/api/getReviewsByPlaceId?placeId=28588,29
attraction,28593,52.3469,4.783665,Amsterdam,Forza Roma Club Couch,Soccer Stadium,http://tour-pedia.org/api/getReviewsByPlaceId?placeId=28593,26
attraction,28595,52.346951,4.783572,Amsterdam,Bloomingdale,Lounge,http://tour-pedia.org/api/getReviewsByPlaceId?placeId=28595,59
attraction,28596,52.346933,4.783513,Amsterdam,Park,Field,http://tour-pedia.org/api/getReviewsByPlaceId?placeId=28596,38
attraction,28598,52.346991,4.783482,Amsterdam,Dog Meeting Point De Oude Molen,Dog Run,http://tour-pedia.org/api/getReviewsByPlaceId?placeId=28598,27
attraction,28601,52.348782,4.780959,Amsterdam,Sweet  Home Osdorp,Hookah Bar,http://tour-pedia.org/api/getReviewsByPlaceId?placeId=28601,32
attraction,28603,52.348824,4.779981,Amsterdam,Iseoplantsoen,Field,http://tour-pedia.org/api/getReviewsByPlaceId?placeId=28603,56
attraction,28609,52.348637,4.780913,Amsterdam,@gizems hause NL:)),Beer Garden,http://tour-pedia.org/api/getReviewsByPlaceId?placeId=28609,55
attraction,28610,52.348526,4.784286,Amsterdam,Aya's Speeltuin,Skydiving,http://tour-pedia.org/api/getReviewsByPlaceId?placeId=28610,42
attraction,28612,52.34634,4.78479,Amsterdam,Lelijk Kunstwerk,Art Gallery,http://tour-pedia.org/api/getReviewsByPlaceId?placeId=28612,42
attraction,28614,52.346451,4.784484,Amsterdam,secmusem,Museum,http://tour-pedia.org/api/getReviewsByPlaceId?placeId=28614,20
attraction,28628,52.411562,4.786654,Amsterdam,Bp Amsterdam Steiger 3,Harbor  Marina,http://tour-pedia.org/api/getReviewsByPlaceId?placeId=28628,59
attraction,28629,52.410641,4.791328,Amsterdam,Amerikahaven,Harbor  Marina,http://tour-pedia.org/api/getReviewsByPlaceId?placeId=28629,18
attraction,28632,52.396939,4.787164,Amsterdam,Heineken HoReCa City,Brewery,http://tour-pedia.org/api/getReviewsByPlaceId?placeId=28632,56
attraction,28633,52.379678,4.787374,Amsterdam,Sportpark De Eendracht,Park,http://tour-pedia.org/api/getReviewsByPlaceId?placeId=28633,19
attraction,28634,52.382752,4.791901,Amsterdam,Mijn Achtertuin,Lounge,http://tour-pedia.org/api/getReviewsByPlaceId?placeId=28634,21
attraction,28635,52.38009,4.789219,Amsterdam,speeltuin geuzenveld,Skydiving,http://tour-pedia.org/api/getReviewsByPlaceId?placeId=28635,17
attraction,28636,52.382783,4.79183,Amsterdam,The matrix,Lounge,http://tour-pedia.org/api/getReviewsByPlaceId?placeId=28636,24
attraction,28637,52.375073,4.787404,Amsterdam,Bahce,Skydiving,http://tour-pedia.org/api/getReviewsByPlaceId?placeId=28637,15
attraction,28638,52.375743,4.787428,Amsterdam,Tigeno Tuin 214,Garden,http://tour-pedia.org/api/getReviewsByPlaceId?placeId=28638,17
attraction,28641,52.376597,4.793823,Amsterdam,Geuzenoord Studio,Music Venue,http://tour-pedia.org/api/getReviewsByPlaceId?placeId=28641,24
attraction,28642,52.372977,4.793957,Amsterdam,K.N.H.S. Concordia,Field,http://tour-pedia.org/api/getReviewsByPlaceId?placeId=28642,37
attraction,28644,52.378361,4.795332,Amsterdam,thuinnen compleks,Farm,http://tour-pedia.org/api/getReviewsByPlaceId?placeId=28644,30
attraction,28647,52.362382,4.791225,Amsterdam,Future Cafe,Bar,http://tour-pedia.org/api/getReviewsByPlaceId?placeId=28647,32
attraction,28648,52.354856,4.792954,Amsterdam,Damien's Place,Home private,http://tour-pedia.org/api/getReviewsByPlaceId?placeId=28648,35
attraction,28649,52.356743,4.789208,Amsterdam,Wesleys Place,Skydiving,http://tour-pedia.org/api/getReviewsByPlaceId?placeId=28649,52
attraction,28651,52.358988,4.790719,Amsterdam,Dierweide Osdorp,Farm,http://tour-pedia.org/api/getReviewsByPlaceId?placeId=28651,19
attraction,28652,52.359515,4.790886,Amsterdam,Lovely Balkon In De Zon,Garden,http://tour-pedia.org/api/getReviewsByPlaceId?placeId=28652,23
attraction,28653,52.359072,4.791625,Amsterdam,After Partyyyy @ Marinkie's,Gay Bar,http://tour-pedia.org/api/getReviewsByPlaceId?placeId=28653,19
attraction,28654,52.356327,4.792244,Amsterdam,"Café/Restaurant ""De Uitweg""",Bar,http://tour-pedia.org/api/getReviewsByPlaceId?placeId=28654,15
attraction,28655,52.355248,4.792073,Amsterdam,NickieNonstop's Studio,Dance Studio,http://tour-pedia.org/api/getReviewsByPlaceId?placeId=28655,41
attraction,28656,52.355856,4.792593,Amsterdam,Brian's Boomhut,Trail,http://tour-pedia.org/api/getReviewsByPlaceId?placeId=28656,18
attraction,28657,52.355431,4.79239,Amsterdam,Pie,General Entertainment,http://tour-pedia.org/api/getReviewsByPlaceId?placeId=28657,40
attraction,28658,52.355375,4.792839,Amsterdam,NickieNonstop's Studio,Dance Studio,http://tour-pedia.org/api/getReviewsByPlaceId?placeId=28658,34
attraction,28659,52.351927,4.789151,Amsterdam,Sander Bras's!,Strip Club,http://tour-pedia.org/api/getReviewsByPlaceId?placeId=28659,19
attraction,28662,52.351044,4.794717,Amsterdam,De Serre,Art Gallery,http://tour-pedia.org/api/getReviewsByPlaceId?placeId=28662,18
attraction,28667,52.347418,4.794713,Amsterdam,Osdorp Palace Garden,Garden,http://tour-pedia.org/api/getReviewsByPlaceId?placeId=28667,25
attraction,28670,52.353098,4.794662,Amsterdam,Voetbalveldje Louis Visserplein,Soccer Field,http://tour-pedia.org/api/getReviewsByPlaceId?placeId=28670,17
attraction,28671,52.353657,4.795258,Amsterdam,Ins Nikita (Michèle's ResQ bunker),Skydiving,http://tour-pedia.org/api/getReviewsByPlaceId?placeId=28671,44
attraction,28672,52.354487,4.794339,Amsterdam,meer en vaart park,Park,http://tour-pedia.org/api/getReviewsByPlaceId?placeId=28672,41
attraction,28676,52.421123,4.799735,Amsterdam,Adm Haven Steiger 2,Harbor  Marina,http://tour-pedia.org/api/getReviewsByPlaceId?placeId=28676,21
attraction,28678,52.420722,4.801435,Amsterdam,Foucault @ Gezelligheid,Hotel Bar,http://tour-pedia.org/api/getReviewsByPlaceId?placeId=28678,38
attraction,28679,52.420694,4.801505,Amsterdam,Foucault @ tv kijken,Indie Movie Theater,http://tour-pedia.org/api/getReviewsByPlaceId?placeId=28679,31
attraction,28681,52.420435,4.802301,Amsterdam,Foucault @ bedje,Harbor  Marina,http://tour-pedia.org/api/getReviewsByPlaceId?placeId=28681,46
attraction,28682,52.410546,4.800621,Amsterdam,Amerikahaven,Harbor  Marina,http://tour-pedia.org/api/getReviewsByPlaceId?placeId=28682,42
attraction,28683,52.406036,4.801387,Amsterdam,Amsterdam Westhaven,Harbor  Marina,http://tour-pedia.org/api/getReviewsByPlaceId?placeId=28683,41
attraction,28684,52.402838,4.795136,Amsterdam,BP Amsterdam terminal,Harbor  Marina,http://tour-pedia.org/api/getReviewsByPlaceId?placeId=28684,40
attraction,28685,52.406619,4.801518,Amsterdam,Sluispolder,Golf Course,http://tour-pedia.org/api/getReviewsByPlaceId?placeId=28685,37
attraction,28686,52.396382,4.795702,Amsterdam,Bleekemolen Raceplanet,Racetrack,http://tour-pedia.org/api/getReviewsByPlaceId?placeId=28686,28
attraction,28687,52.392,4.798132,Amsterdam,Chateau Techno festival,Gay Bar,http://tour-pedia.org/api/getReviewsByPlaceId?placeId=28687,55
attraction,28688,52.383516,4.797299,Amsterdam,Speeltuin joost bilhamer,Skydiving,http://tour-pedia.org/api/getReviewsByPlaceId?placeId=28688,53
attraction,28689,52.383493,4.797778,Amsterdam,Speeltuin philip vingboon,Skydiving,http://tour-pedia.org/api/getReviewsByPlaceId?placeId=28689,29
attraction,28690,52.386643,4.798469,Amsterdam,Linda's place,Home private,http://tour-pedia.org/api/getReviewsByPlaceId?placeId=28690,60
attraction,28691,52.383462,4.797634,Amsterdam,Pieterpostsingel,Dog Run,http://tour-pedia.org/api/getReviewsByPlaceId?placeId=28691,54
attraction,28692,52.384376,4.803255,Amsterdam,N200 richting Halfweg,Bridge,http://tour-pedia.org/api/getReviewsByPlaceId?placeId=28692,16
attraction,28693,52.385838,4.8036,Amsterdam,Prettenpad,Park,http://tour-pedia.org/api/getReviewsByPlaceId?placeId=28693,49
attraction,28694,52.379756,4.798045,Amsterdam,Aalbersestraat,Trail,http://tour-pedia.org/api/getReviewsByPlaceId?placeId=28694,57
attraction,28697,52.379272,4.79874,Amsterdam,Logeerkamer,Nightlife Spot,http://tour-pedia.org/api/getReviewsByPlaceId?placeId=28697,56
attraction,28698,52.382187,4.800715,Amsterdam,vieze frank's,Hookah Bar,http://tour-pedia.org/api/getReviewsByPlaceId?placeId=28698,20
attraction,28699,52.376046,4.79663,Amsterdam,Sam van Houtenstraat,Home private,http://tour-pedia.org/api/getReviewsByPlaceId?placeId=28699,17
attraction,28700,52.377605,4.798647,Amsterdam,Rick's Bedroom,Lounge,http://tour-pedia.org/api/getReviewsByPlaceId?placeId=28700,39
attraction,28703,52.377583,4.801935,Amsterdam,"Lambertus Zijlplein, amsterdam",Plaza,http://tour-pedia.org/api/getReviewsByPlaceId?placeId=28703,34
attraction,28704,52.371759,4.797299,Amsterdam,GolfClub Ookmeer,Golf Course,http://tour-pedia.org/api/getReviewsByPlaceId?placeId=28704,36
attraction,28705,52.369488,4.7958,Amsterdam,Tennispark Osdorp,Baseball Field,http://tour-pedia.org/api/getReviewsByPlaceId?placeId=28705,21
attraction,28706,52.367854,4.795785,Amsterdam,Devonello,Football Stadium,http://tour-pedia.org/api/getReviewsByPlaceId?placeId=28706,30
attraction,28708,52.372031,4.798222,Amsterdam,AGB,Soccer Field,http://tour-pedia.org/api/getReviewsByPlaceId?placeId=28708,26
attraction,28709,52.367839,4.795899,Amsterdam,Devo58,Soccer Stadium,http://tour-pedia.org/api/getReviewsByPlaceId?placeId=28709,29
attraction,28710,52.369618,4.798885,Amsterdam,V en V voetballlllll,Soccer Field,http://tour-pedia.org/api/getReviewsByPlaceId?placeId=28710,56
attraction,28711,52.376187,4.802045,Amsterdam,Club Troela!,Lounge,http://tour-pedia.org/api/getReviewsByPlaceId?placeId=28711,37
attraction,28713,52.378265,4.802377,Amsterdam,Huize Tas,Field,http://tour-pedia.org/api/getReviewsByPlaceId?placeId=28713,42
attraction,28715,52.366694,4.799354,Amsterdam,Amsterdam Pirates,Baseball Stadium,http://tour-pedia.org/api/getReviewsByPlaceId?placeId=28715,58
attraction,28716,52.36607,4.798145,Amsterdam,Dcg,Soccer Field,http://tour-pedia.org/api/getReviewsByPlaceId?placeId=28716,26
attraction,28718,52.362295,4.795023,Amsterdam,Osdorpperplein,Plaza,http://tour-pedia.org/api/getReviewsByPlaceId?placeId=28718,41
attraction,28719,52.363571,4.800567,Amsterdam,Nederlandse WingTsun Organisatie,Athletics  Sports,http://tour-pedia.org/api/getReviewsByPlaceId?placeId=28719,16
attraction,28720,52.364147,4.795918,Amsterdam,Ookmeerweg,Bridge,http://tour-pedia.org/api/getReviewsByPlaceId?placeId=28720,28
attraction,28721,52.362382,4.794656,Amsterdam,Tulip Inn Amsterdam City West,Hotel Bar,http://tour-pedia.org/api/getReviewsByPlaceId?placeId=28721,21
attraction,28722,52.362748,4.795252,Amsterdam,Speeltuin Wolbrantskerkweg,Skydiving,http://tour-pedia.org/api/getReviewsByPlaceId?placeId=28722,53
attraction,28723,52.366979,4.799362,Amsterdam,Mokum H.A.W.K.S.,Baseball Field,http://tour-pedia.org/api/getReviewsByPlaceId?placeId=28723,58
attraction,28725,52.368421,4.800177,Amsterdam,De poort van Constant,Historic Site,http://tour-pedia.org/api/getReviewsByPlaceId?placeId=28725,36
attraction,28726,52.368322,4.800767,Amsterdam,De poort van Constant,Historic Site,http://tour-pedia.org/api/getReviewsByPlaceId?placeId=28726,46
attraction,28727,52.371796,4.798705,Amsterdam,Amsterdam Genclerbirligi,Soccer Field,http://tour-pedia.org/api/getReviewsByPlaceId?placeId=28727,21
attraction,28728,52.362082,4.798856,Amsterdam,Keuter HQ,Beer Garden,http://tour-pedia.org/api/getReviewsByPlaceId?placeId=28728,28
attraction,28729,52.367225,4.801768,Amsterdam,Huttenbouw Impuls,Skydiving,http://tour-pedia.org/api/getReviewsByPlaceId?placeId=28729,57
attraction,28730,52.365947,4.802266,Amsterdam,Sportvelden Club West,Field,http://tour-pedia.org/api/getReviewsByPlaceId?placeId=28730,59
attraction,28731,52.366453,4.803671,Amsterdam,Balcontrole.nl,Soccer Field,http://tour-pedia.org/api/getReviewsByPlaceId?placeId=28731,18
attraction,28732,52.365682,4.804659,Amsterdam,schooltuin osdorp,Farm,http://tour-pedia.org/api/getReviewsByPlaceId?placeId=28732,41
attraction,28735,52.355139,4.797598,Amsterdam,Brug Hoekenespad (Stadspark Osdorp),Bridge,http://tour-pedia.org/api/getReviewsByPlaceId?placeId=28735,58
attraction,28736,52.354641,4.798157,Amsterdam,Bar Jorritsma,Bar,http://tour-pedia.org/api/getReviewsByPlaceId?placeId=28736,52
attraction,28737,52.357264,4.796984,Amsterdam,Hoofd Ingang (Stadspark Osdorp),Park,http://tour-pedia.org/api/getReviewsByPlaceId?placeId=28737,41
attraction,28738,52.356891,4.797637,Amsterdam,Future Café :: Tussen Meer 107,Lounge,http://tour-pedia.org/api/getReviewsByPlaceId?placeId=28738,27
attraction,28740,52.353141,4.798284,Amsterdam,Speeltuin Jan Oudegeeststraat,Skydiving,http://tour-pedia.org/api/getReviewsByPlaceId?placeId=28740,41
attraction,28741,52.35838,4.801122,Amsterdam,Ferrari Fire Force : HQ,Rock Club,http://tour-pedia.org/api/getReviewsByPlaceId?placeId=28741,49
attraction,28743,52.349323,4.799649,Amsterdam,Jan Van Zutphenplantsoen,Garden,http://tour-pedia.org/api/getReviewsByPlaceId?placeId=28743,22
attraction,28744,52.342507,4.795377,Amsterdam,Matchroom Sloten,Sports Bar,http://tour-pedia.org/api/getReviewsByPlaceId?placeId=28744,29
attraction,28745,52.349152,4.796251,Amsterdam,Trampoline Baden Powellweg,Skydiving,http://tour-pedia.org/api/getReviewsByPlaceId?placeId=28745,41
attraction,28746,52.3487,4.79721,Amsterdam,Trampoline Speeltuin,Skydiving,http://tour-pedia.org/api/getReviewsByPlaceId?placeId=28746,54
attraction,28747,52.348851,4.796415,Amsterdam,Dog Park,Dog Run,http://tour-pedia.org/api/getReviewsByPlaceId?placeId=28747,20
attraction,28748,52.349824,4.800023,Amsterdam,Picknick Spot Don & Josien,Park,http://tour-pedia.org/api/getReviewsByPlaceId?placeId=28748,45
attraction,28749,52.349253,4.798746,Amsterdam,Speelding Waterpark,Skydiving,http://tour-pedia.org/api/getReviewsByPlaceId?placeId=28749,33
attraction,28750,52.351261,4.799923,Amsterdam,Jan Smitstraat,Golf Course,http://tour-pedia.org/api/getReviewsByPlaceId?placeId=28750,16
attraction,28751,52.341629,4.795555,Amsterdam,Speeltuin Sloten,Skydiving,http://tour-pedia.org/api/getReviewsByPlaceId?placeId=28751,33
attraction,28757,52.415275,4.809477,Amsterdam,Westhaven,Harbor  Marina,http://tour-pedia.org/api/getReviewsByPlaceId?placeId=28757,33
attraction,28758,52.404465,4.802147,Amsterdam,Amsterdam Chapter,Bar,http://tour-pedia.org/api/getReviewsByPlaceId?placeId=28758,21
attraction,28759,52.390111,4.811175,Amsterdam,Muziekstudio De Haas,Music Venue,http://tour-pedia.org/api/getReviewsByPlaceId?placeId=28759,29
attraction,28760,52.383862,4.807281,Amsterdam,OUST.je,Strip Club,http://tour-pedia.org/api/getReviewsByPlaceId?placeId=28760,56
attraction,28761,52.381363,4.803888,Amsterdam,kippies,Farm,http://tour-pedia.org/api/getReviewsByPlaceId?placeId=28761,43
attraction,28762,52.380092,4.802531,Amsterdam,:: Guidance::  Supreme Divine ::,Skydiving,http://tour-pedia.org/api/getReviewsByPlaceId?placeId=28762,35
attraction,28763,52.381476,4.804534,Amsterdam,Speeltuin Wigbolt Ripperdastraat,Skydiving,http://tour-pedia.org/api/getReviewsByPlaceId?placeId=28763,30
attraction,28765,52.3818,4.806702,Amsterdam,Crazy Horse's PingPongBall Shooting Strippers,Strip Club,http://tour-pedia.org/api/getReviewsByPlaceId?placeId=28765,30
attraction,28766,52.382713,4.80943,Amsterdam,Poedelbadje Eendrachtspark,Pool,http://tour-pedia.org/api/getReviewsByPlaceId?placeId=28766,53
attraction,28767,52.378005,4.806876,Amsterdam,Hollanda fenerbahceliler dernegi,General Entertainment,http://tour-pedia.org/api/getReviewsByPlaceId?placeId=28767,30
attraction,28768,52.377656,4.807377,Amsterdam,Speelpark Confucius,Skydiving,http://tour-pedia.org/api/getReviewsByPlaceId?placeId=28768,45
attraction,28769,52.378548,4.808507,Amsterdam,Vuurtoren Bergen,Lighthouse,http://tour-pedia.org/api/getReviewsByPlaceId?placeId=28769,59
attraction,28770,52.377818,4.807976,Amsterdam,Speeltuin Colijnstraat,Skydiving,http://tour-pedia.org/api/getReviewsByPlaceId?placeId=28770,36
attraction,28771,52.377864,4.807881,Amsterdam,Timotheus Speeltuin,Kayaking,http://tour-pedia.org/api/getReviewsByPlaceId?placeId=28771,41
attraction,28772,52.370734,4.803385,Amsterdam,AAC,Track Stadium,http://tour-pedia.org/api/getReviewsByPlaceId?placeId=28772,60
attraction,28774,52.37152,4.803088,Amsterdam,Bounz,Arts  Entertainment,http://tour-pedia.org/api/getReviewsByPlaceId?placeId=28774,19
attraction,28775,52.371591,4.802918,Amsterdam,ISH Gebouw,General Entertainment,http://tour-pedia.org/api/getReviewsByPlaceId?placeId=28775,57
attraction,28776,52.370138,4.802586,Amsterdam,ROHDA Amsterdam,Athletics  Sports,http://tour-pedia.org/api/getReviewsByPlaceId?placeId=28776,36
attraction,28777,52.374595,4.812539,Amsterdam,Confuciusplein,Plaza,http://tour-pedia.org/api/getReviewsByPlaceId?placeId=28777,58
attraction,28779,52.375437,4.807749,Amsterdam,Rozentuintje,Garden,http://tour-pedia.org/api/getReviewsByPlaceId?placeId=28779,29
attraction,28780,52.367862,4.805122,Amsterdam,Time Out Sportcafe,Hookah Bar,http://tour-pedia.org/api/getReviewsByPlaceId?placeId=28780,45
attraction,28782,52.362155,4.806976,Amsterdam,Колониальные Позняки,Lake,http://tour-pedia.org/api/getReviewsByPlaceId?placeId=28782,48
attraction,28783,52.36138,4.805978,Amsterdam,Talentenhuis,Theater,http://tour-pedia.org/api/getReviewsByPlaceId?placeId=28783,28
attraction,28785,52.36761,4.805615,Amsterdam,Soos dbsv,Bar,http://tour-pedia.org/api/getReviewsByPlaceId?placeId=28785,19
attraction,28786,52.36333,4.80564,Amsterdam,Pap thuis,Gay Bar,http://tour-pedia.org/api/getReviewsByPlaceId?placeId=28786,22
attraction,28787,52.366193,4.809093,Amsterdam,OSC Amsterdam,Soccer Field,http://tour-pedia.org/api/getReviewsByPlaceId?placeId=28787,35
attraction,28788,52.366416,4.811492,Amsterdam,Mystic Garden,Music Venue,http://tour-pedia.org/api/getReviewsByPlaceId?placeId=28788,53
attraction,28789,52.359245,4.804943,Amsterdam,Winkelcentrum Osdorpplein,Plaza,http://tour-pedia.org/api/getReviewsByPlaceId?placeId=28789,42
attraction,28792,52.362141,4.809548,Amsterdam,Sloterpark,Park,http://tour-pedia.org/api/getReviewsByPlaceId?placeId=28792,46
attraction,28793,52.354305,4.807205,Amsterdam,Sportcentrum Caland,Basketball Stadium,http://tour-pedia.org/api/getReviewsByPlaceId?placeId=28793,18
attraction,28794,52.358039,4.805126,Amsterdam,Café Fly-Inn,Bar,http://tour-pedia.org/api/getReviewsByPlaceId?placeId=28794,36
attraction,28795,52.357641,4.809051,Amsterdam,Speelplek Sloterplas Oever,Skydiving,http://tour-pedia.org/api/getReviewsByPlaceId?placeId=28795,35
attraction,28796,52.359509,4.805933,Amsterdam,Aya Kiddyland,Skydiving,http://tour-pedia.org/api/getReviewsByPlaceId?placeId=28796,27
attraction,28797,52.35931,4.808311,Amsterdam,Food Night,General Entertainment,http://tour-pedia.org/api/getReviewsByPlaceId?placeId=28797,16
attraction,28798,52.358949,4.807053,Amsterdam,MSA West,Music Venue,http://tour-pedia.org/api/getReviewsByPlaceId?placeId=28798,51
attraction,28799,52.356506,4.807889,Amsterdam,Dwaze Moedersplein,Skydiving,http://tour-pedia.org/api/getReviewsByPlaceId?placeId=28799,34
attraction,28800,52.341491,4.799642,Amsterdam,Café Restaurant Kerkzicht,Pub,http://tour-pedia.org/api/getReviewsByPlaceId?placeId=28800,31
attraction,28801,52.346317,4.802834,Amsterdam,Onze Lieve Buren,Beer Garden,http://tour-pedia.org/api/getReviewsByPlaceId?placeId=28801,24
attraction,28804,52.346963,4.809985,Amsterdam,Speeltuin,Skydiving,http://tour-pedia.org/api/getReviewsByPlaceId?placeId=28804,54
attraction,28806,52.340216,4.807205,Amsterdam,Velodrome Sloten,Racetrack,http://tour-pedia.org/api/getReviewsByPlaceId?placeId=28806,22
attraction,28811,52.335983,4.804913,Amsterdam,Sv Nieuw-Sloten,Athletics  Sports,http://tour-pedia.org/api/getReviewsByPlaceId?placeId=28811,56
attraction,28812,52.340028,4.807412,Amsterdam,Sportpark Sloten,Soccer Field,http://tour-pedia.org/api/getReviewsByPlaceId?placeId=28812,28
attraction,28813,52.336761,4.805026,Amsterdam,Quick 1913,Baseball Field,http://tour-pedia.org/api/getReviewsByPlaceId?placeId=28813,25
attraction,28814,52.343632,4.805483,Amsterdam,Maarkedalpad,Field,http://tour-pedia.org/api/getReviewsByPlaceId?placeId=28814,15
attraction,28819,52.339718,4.80227,Amsterdam,Amsterdam Crusaders,College Football Field,http://tour-pedia.org/api/getReviewsByPlaceId?placeId=28819,39
attraction,28822,52.343404,4.805402,Amsterdam,Peilscheidingskade,Dog Run,http://tour-pedia.org/api/getReviewsByPlaceId?placeId=28822,28
attraction,28823,52.337542,4.8036,Amsterdam,DSG - Handbalvereniging - Sportpark Sloten,Park,http://tour-pedia.org/api/getReviewsByPlaceId?placeId=28823,46
attraction,28824,52.339329,4.806551,Amsterdam,Golfbaan Sloten,Golf Course,http://tour-pedia.org/api/getReviewsByPlaceId?placeId=28824,32
attraction,28827,52.337461,4.804409,Amsterdam,WVA amsterdam,Racetrack,http://tour-pedia.org/api/getReviewsByPlaceId?placeId=28827,22
attraction,28829,52.339841,4.808852,Amsterdam,Robic Wielerlab,Athletics  Sports,http://tour-pedia.org/api/getReviewsByPlaceId?placeId=28829,50
attraction,28834,52.390215,4.817359,Amsterdam,Tunnel Sloterdijk-Zaandam,Bridge,http://tour-pedia.org/api/getReviewsByPlaceId?placeId=28834,22
attraction,28835,52.38637,4.816202,Amsterdam,De Bretten,Garden,http://tour-pedia.org/api/getReviewsByPlaceId?placeId=28835,37
attraction,28836,52.388707,4.81752,Amsterdam,The Sands,Nightclub,http://tour-pedia.org/api/getReviewsByPlaceId?placeId=28836,19
attraction,28837,52.382611,4.807747,Amsterdam,1dr8park,Field,http://tour-pedia.org/api/getReviewsByPlaceId?placeId=28837,17
attraction,28838,52.387196,4.816911,Amsterdam,Kastanjelaan,Garden,http://tour-pedia.org/api/getReviewsByPlaceId?placeId=28838,39
attraction,28839,52.38166,4.80635,Amsterdam,Gentlemens Club de Natte Kikker,Strip Club,http://tour-pedia.org/api/getReviewsByPlaceId?placeId=28839,44
attraction,28841,52.380612,4.815931,Amsterdam,Bernard Loderstreet,Skydiving,http://tour-pedia.org/api/getReviewsByPlaceId?placeId=28841,51
attraction,28842,52.377838,4.809345,Amsterdam,Home Sweeter Home,Hotel Bar,http://tour-pedia.org/api/getReviewsByPlaceId?placeId=28842,29
attraction,28844,52.370465,4.817395,Amsterdam,Sloterparkbad,Pool,http://tour-pedia.org/api/getReviewsByPlaceId?placeId=28844,55
attraction,28845,52.37026,4.817411,Amsterdam,Clubhuis De Dolfijn,Sports Bar,http://tour-pedia.org/api/getReviewsByPlaceId?placeId=28845,56
attraction,28846,52.371545,4.812535,Amsterdam,natureluur,Skydiving,http://tour-pedia.org/api/getReviewsByPlaceId?placeId=28846,20
attraction,28847,52.370529,4.81717,Amsterdam,Zwemschool De Natte Kikker,Pool,http://tour-pedia.org/api/getReviewsByPlaceId?placeId=28847,35
attraction,28848,52.369862,4.81844,Amsterdam,Loveland,Music Venue,http://tour-pedia.org/api/getReviewsByPlaceId?placeId=28848,43
attraction,28849,52.370721,4.817949,Amsterdam,Zwemschool De Druppel,Pool,http://tour-pedia.org/api/getReviewsByPlaceId?placeId=28849,51
attraction,28850,52.371132,4.812608,Amsterdam,Ruige Riet,Trail,http://tour-pedia.org/api/getReviewsByPlaceId?placeId=28850,49
attraction,28852,52.371708,4.815102,Amsterdam,Kinderboerderij,Skydiving,http://tour-pedia.org/api/getReviewsByPlaceId?placeId=28852,18
attraction,28853,52.370332,4.817495,Amsterdam,zwemschool de oceaan,Water Park,http://tour-pedia.org/api/getReviewsByPlaceId?placeId=28853,41
attraction,28854,52.366088,4.811583,Amsterdam,Mystic Garden,Nightclub,http://tour-pedia.org/api/getReviewsByPlaceId?placeId=28854,47
attraction,28855,52.36899,4.817902,Amsterdam,Strand Sloterplas,Beach,http://tour-pedia.org/api/getReviewsByPlaceId?placeId=28855,33
attraction,28856,52.368788,4.816413,Amsterdam,Disc Golf Sloterpark,Golf Course,http://tour-pedia.org/api/getReviewsByPlaceId?placeId=28856,28
attraction,28857,52.360123,4.819315,Amsterdam,Sloterpark,Park,http://tour-pedia.org/api/getReviewsByPlaceId?placeId=28857,33
attraction,28858,52.360008,4.815702,Amsterdam,Watersportcentrum Sloterplas,Harbor  Marina,http://tour-pedia.org/api/getReviewsByPlaceId?placeId=28858,22
attraction,28859,52.358809,4.814394,Amsterdam,WV Sloterplas,Harbor  Marina,http://tour-pedia.org/api/getReviewsByPlaceId?placeId=28859,45
attraction,28860,52.353074,4.813398,Amsterdam,Coffeeshop Sensemillia,Hookah Bar,http://tour-pedia.org/api/getReviewsByPlaceId?placeId=28860,41
attraction,28861,52.356955,4.814158,Amsterdam,Haven Sloterplas Osdorp,Harbor  Marina,http://tour-pedia.org/api/getReviewsByPlaceId?placeId=28861,52
attraction,28862,52.359773,4.815889,Amsterdam,The Bootcamp Club,Athletics  Sports,http://tour-pedia.org/api/getReviewsByPlaceId?placeId=28862,49
attraction,28863,52.355062,4.816588,Amsterdam,Natuurcentrum Wiedijk,Garden,http://tour-pedia.org/api/getReviewsByPlaceId?placeId=28863,19
attraction,28864,52.364469,4.812451,Amsterdam,dogsquare amsterdam sloterpark,Dog Run,http://tour-pedia.org/api/getReviewsByPlaceId?placeId=28864,49
attraction,28865,52.356646,4.819156,Amsterdam,Christoffel Plantijnpad - Fietspad,Trail,http://tour-pedia.org/api/getReviewsByPlaceId?placeId=28865,38
attraction,28866,52.3523,4.815417,Amsterdam,Sloten Terug In De Kas,General Entertainment,http://tour-pedia.org/api/getReviewsByPlaceId?placeId=28866,59
attraction,28869,52.348068,4.815724,Amsterdam,Evim;),Nightclub,http://tour-pedia.org/api/getReviewsByPlaceId?placeId=28869,22
attraction,28871,52.348018,4.815404,Amsterdam,Çapulcu Palace,Nightclub,http://tour-pedia.org/api/getReviewsByPlaceId?placeId=28871,33
attraction,28872,52.34099,4.807215,Amsterdam,Kika kermis,General Entertainment,http://tour-pedia.org/api/getReviewsByPlaceId?placeId=28872,18
attraction,28873,52.3371,4.811034,Amsterdam,Amsterdam Holland,Nightclub,http://tour-pedia.org/api/getReviewsByPlaceId?placeId=28873,32
attraction,28874,52.34158,4.811497,Amsterdam,Vlindermolen,Sculpture Garden,http://tour-pedia.org/api/getReviewsByPlaceId?placeId=28874,22
attraction,28875,52.342722,4.813273,Amsterdam,bastenaken sports cafe,Sports Bar,http://tour-pedia.org/api/getReviewsByPlaceId?placeId=28875,28
attraction,28876,52.337993,4.813865,Amsterdam,Airline Lounge 26,Lounge,http://tour-pedia.org/api/getReviewsByPlaceId?placeId=28876,22
attraction,28879,52.338271,4.816409,Amsterdam,Amsterdam dungeon shop,History Museum,http://tour-pedia.org/api/getReviewsByPlaceId?placeId=28879,30
attraction,28883,52.3347,4.814541,Amsterdam,Aquarius Strand,Beach,http://tour-pedia.org/api/getReviewsByPlaceId?placeId=28883,37
attraction,28884,52.334297,4.813768,Amsterdam,Oeverlanden Strandje,Beach,http://tour-pedia.org/api/getReviewsByPlaceId?placeId=28884,46
attraction,28885,52.329061,4.817314,Amsterdam,@550,Harbor  Marina,http://tour-pedia.org/api/getReviewsByPlaceId?placeId=28885,51
attraction,28889,52.338336,4.817028,Amsterdam,PricewaterhouseCoopers - Westgate II,Wine Bar,http://tour-pedia.org/api/getReviewsByPlaceId?placeId=28889,56
attraction,28890,52.329176,4.814672,Amsterdam,E.W. Driessen,Harbor  Marina,http://tour-pedia.org/api/getReviewsByPlaceId?placeId=28890,15
attraction,28898,52.419381,4.826774,Amsterdam,Noordzeekanaal,River,http://tour-pedia.org/api/getReviewsByPlaceId?placeId=28898,16
attraction,28899,52.420906,4.82257,Amsterdam,Boot 10,Lake,http://tour-pedia.org/api/getReviewsByPlaceId?placeId=28899,51
attraction,28903,52.416277,4.824661,Amsterdam,Bier&cO,Coworking Space,http://tour-pedia.org/api/getReviewsByPlaceId?placeId=28903,35
attraction,28904,52.416378,4.826716,Amsterdam,New Circle,Art Gallery,http://tour-pedia.org/api/getReviewsByPlaceId?placeId=28904,40
attraction,28905,52.408883,4.828438,Amsterdam,Meat Lovers Delight,Comedy Club,http://tour-pedia.org/api/getReviewsByPlaceId?placeId=28905,37
attraction,28906,52.404951,4.822998,Amsterdam,Nustar Steiger 4,Harbor  Marina,http://tour-pedia.org/api/getReviewsByPlaceId?placeId=28906,20
attraction,28907,52.391678,4.82144,Amsterdam,Westpoort,Harbor  Marina,http://tour-pedia.org/api/getReviewsByPlaceId?placeId=28907,39
attraction,28908,52.391691,4.825783,Amsterdam,Hollanda fenerbahceliler dernegi,General Entertainment,http://tour-pedia.org/api/getReviewsByPlaceId?placeId=28908,58
attraction,28909,52.39044,4.825087,Amsterdam,The Sand,Nightclub,http://tour-pedia.org/api/getReviewsByPlaceId?placeId=28909,23
attraction,28910,52.39019,4.826642,Amsterdam,indoor soccer events,Soccer Field,http://tour-pedia.org/api/getReviewsByPlaceId?placeId=28910,50
attraction,28911,52.384625,4.818588,Amsterdam,Aaf,Art Gallery,http://tour-pedia.org/api/getReviewsByPlaceId?placeId=28911,38
attraction,28913,52.390412,4.825063,Amsterdam,The Sand (Club) Indoor Beachsports & Events complex in Amsterdam,Nightclub,http://tour-pedia.org/api/getReviewsByPlaceId?placeId=28913,23
attraction,28914,52.380591,4.820668,Amsterdam,Amsterdam,Soccer Stadium,http://tour-pedia.org/api/getReviewsByPlaceId?placeId=28914,26
attraction,28915,52.390335,4.82023,Amsterdam,XT3 techno radio,Music Venue,http://tour-pedia.org/api/getReviewsByPlaceId?placeId=28915,27
attraction,28916,52.391,4.8195,Amsterdam,cleansefortex,Zoo,http://tour-pedia.org/api/getReviewsByPlaceId?placeId=28916,59
attraction,28917,52.384487,4.818915,Amsterdam,Basebal,Baseball Field,http://tour-pedia.org/api/getReviewsByPlaceId?placeId=28917,56
attraction,28918,52.390349,4.820254,Amsterdam,Strøm Recordings,Music Venue,http://tour-pedia.org/api/getReviewsByPlaceId?placeId=28918,23
attraction,28919,52.386291,4.818603,Amsterdam,Roodbaards Verzamelhok,Beer Garden,http://tour-pedia.org/api/getReviewsByPlaceId?placeId=28919,39
attraction,28920,52.380849,4.820887,Amsterdam,Petit Café Zomerlust,Bar,http://tour-pedia.org/api/getReviewsByPlaceId?placeId=28920,41
attraction,28921,52.388574,4.823056,Amsterdam,One-way Exit,Nightclub,http://tour-pedia.org/api/getReviewsByPlaceId?placeId=28921,52
attraction,28922,52.390678,4.824242,Amsterdam,The Stand,Concert Hall,http://tour-pedia.org/api/getReviewsByPlaceId?placeId=28922,51
attraction,28923,52.384164,4.820102,Amsterdam,BRAMSKI.COM,General Entertainment,http://tour-pedia.org/api/getReviewsByPlaceId?placeId=28923,50
attraction,28924,52.390369,4.825056,Amsterdam,Rokersruimte TheSand,Nightclub,http://tour-pedia.org/api/getReviewsByPlaceId?placeId=28924,51
attraction,28925,52.382711,4.818512,Amsterdam,Op Visite Bij Damientje,Nightclub,http://tour-pedia.org/api/getReviewsByPlaceId?placeId=28925,37
attraction,28926,52.38153,4.818382,Amsterdam,Mies Magic Mansion,Nightclub,http://tour-pedia.org/api/getReviewsByPlaceId?placeId=28926,52
attraction,28927,52.381682,4.821599,Amsterdam,De Buurtslager,General Entertainment,http://tour-pedia.org/api/getReviewsByPlaceId?placeId=28927,55
attraction,28928,52.380725,4.822058,Amsterdam,Discotaxi,Music Venue,http://tour-pedia.org/api/getReviewsByPlaceId?placeId=28928,44
attraction,28929,52.381086,4.823504,Amsterdam,Carillonconcerten,Historic Site,http://tour-pedia.org/api/getReviewsByPlaceId?placeId=28929,22
attraction,28930,52.380315,4.822395,Amsterdam,Plein '40-'45,Mall,http://tour-pedia.org/api/getReviewsByPlaceId?placeId=28930,60
attraction,28931,52.375366,4.820226,Amsterdam,Bar Content,Bar,http://tour-pedia.org/api/getReviewsByPlaceId?placeId=28931,26
attraction,28932,52.379019,4.817112,Amsterdam,Parkje,Park,http://tour-pedia.org/api/getReviewsByPlaceId?placeId=28932,58
attraction,28933,52.378676,4.820567,Amsterdam,Bar Blue Square Hotel,Hotel Bar,http://tour-pedia.org/api/getReviewsByPlaceId?placeId=28933,40
attraction,28934,52.38529,4.82778,Amsterdam,Brettenpad,Trail,http://tour-pedia.org/api/getReviewsByPlaceId?placeId=28934,52
attraction,28938,52.37047,4.82029,Amsterdam,Rondje Sloterplas 6 km,Park,http://tour-pedia.org/api/getReviewsByPlaceId?placeId=28938,15
attraction,28939,52.371355,4.824886,Amsterdam,Sloterplas,Dog Run,http://tour-pedia.org/api/getReviewsByPlaceId?placeId=28939,45
attraction,28940,52.372383,4.821278,Amsterdam,Scouting Sloterplas,Bar,http://tour-pedia.org/api/getReviewsByPlaceId?placeId=28940,42
attraction,28941,52.372639,4.822655,Amsterdam,Zeilschool De Duikelaar,Harbor  Marina,http://tour-pedia.org/api/getReviewsByPlaceId?placeId=28941,32
attraction,28942,52.369329,4.81672,Amsterdam,The Color Run,Athletics  Sports,http://tour-pedia.org/api/getReviewsByPlaceId?placeId=28942,33
attraction,28943,52.37366,4.821668,Amsterdam,Voetbalveldje,Skydiving,http://tour-pedia.org/api/getReviewsByPlaceId?placeId=28943,41
attraction,28946,52.367389,4.825332,Amsterdam,Karl's Chill Out Spot for warm days,Park,http://tour-pedia.org/api/getReviewsByPlaceId?placeId=28946,47
attraction,28948,52.364551,4.813211,Amsterdam,Sloterpark heuvel,Ski Area,http://tour-pedia.org/api/getReviewsByPlaceId?placeId=28948,55
attraction,28949,52.351422,4.819278,Amsterdam,Plesmanlaan,Dog Run,http://tour-pedia.org/api/getReviewsByPlaceId?placeId=28949,31
attraction,28950,52.363075,4.826774,Amsterdam,Amore,Bar,http://tour-pedia.org/api/getReviewsByPlaceId?placeId=28950,18
attraction,28951,52.349632,4.82563,Amsterdam,Belgiëplein,Plaza,http://tour-pedia.org/api/getReviewsByPlaceId?placeId=28951,57
attraction,28953,52.342606,4.820354,Amsterdam,De Oase,Wine Bar,http://tour-pedia.org/api/getReviewsByPlaceId?placeId=28953,29
attraction,28955,52.341614,4.821963,Amsterdam,Manege De Ruif,Stables,http://tour-pedia.org/api/getReviewsByPlaceId?placeId=28955,20
attraction,28956,52.342379,4.814072,Amsterdam,Dogrun nieuw-sloten,Dog Run,http://tour-pedia.org/api/getReviewsByPlaceId?placeId=28956,51
attraction,28957,52.340475,4.823364,Amsterdam,Köln,General Entertainment,http://tour-pedia.org/api/getReviewsByPlaceId?placeId=28957,33
attraction,28958,52.338904,4.829621,Amsterdam,De Oeverlanden,Park,http://tour-pedia.org/api/getReviewsByPlaceId?placeId=28958,35
attraction,28961,52.342639,4.820287,Amsterdam,Siegerpark,Park,http://tour-pedia.org/api/getReviewsByPlaceId?placeId=28961,18
attraction,28963,52.338984,4.806781,Amsterdam,Voetbalvereniging Herenmarkt,Soccer Field,http://tour-pedia.org/api/getReviewsByPlaceId?placeId=28963,46
attraction,28964,52.341198,4.811537,Amsterdam,Halfpipe Nieuw Sloten,Arcade,http://tour-pedia.org/api/getReviewsByPlaceId?placeId=28964,22
attraction,28965,52.329726,4.816653,Amsterdam,Nieuwemeer,Lake,http://tour-pedia.org/api/getReviewsByPlaceId?placeId=28965,33
attraction,28966,52.335675,4.825156,Amsterdam,Juul uitlaten bij de Nieuwe Meer,Dog Run,http://tour-pedia.org/api/getReviewsByPlaceId?placeId=28966,25
attraction,28967,52.340558,4.799356,Amsterdam,Tuinpark Eigen Hof,Garden,http://tour-pedia.org/api/getReviewsByPlaceId?placeId=28967,53
attraction,28968,52.345284,4.809381,Amsterdam,Eetcafé Match,Sports Bar,http://tour-pedia.org/api/getReviewsByPlaceId?placeId=28968,36
attraction,28971,52.41459,4.831631,Amsterdam,Karel Reiniershaven,Harbor  Marina,http://tour-pedia.org/api/getReviewsByPlaceId?placeId=28971,51
attraction,28978,52.390674,4.830725,Amsterdam,H7,Concert Hall,http://tour-pedia.org/api/getReviewsByPlaceId?placeId=28978,22
attraction,28981,52.390933,4.830323,Amsterdam,EventHands,General Entertainment,http://tour-pedia.org/api/getReviewsByPlaceId?placeId=28981,17
attraction,28982,52.390695,4.831269,Amsterdam,Los,General Entertainment,http://tour-pedia.org/api/getReviewsByPlaceId?placeId=28982,39
attraction,28983,52.390669,4.831106,Amsterdam,Rhone Warehouse,Nightclub,http://tour-pedia.org/api/getReviewsByPlaceId?placeId=28983,54
attraction,28984,52.38644,4.827846,Amsterdam,AMHC Westerpark,Park,http://tour-pedia.org/api/getReviewsByPlaceId?placeId=28984,54
attraction,28986,52.390452,4.831144,Amsterdam,Partycentrum Rhone,Nightlife Spot,http://tour-pedia.org/api/getReviewsByPlaceId?placeId=28986,25
attraction,28987,52.387891,4.830647,Amsterdam,Warner Bros,Movie Theater,http://tour-pedia.org/api/getReviewsByPlaceId?placeId=28987,52
attraction,28988,52.387747,4.830261,Amsterdam,Warner Bros. screening room,Movie Theater,http://tour-pedia.org/api/getReviewsByPlaceId?placeId=28988,23
attraction,28989,52.386247,4.829607,Amsterdam,ASC S.D.W.,Soccer Field,http://tour-pedia.org/api/getReviewsByPlaceId?placeId=28989,16
attraction,28990,52.386708,4.829924,Amsterdam,avv sdw,Soccer Field,http://tour-pedia.org/api/getReviewsByPlaceId?placeId=28990,34
attraction,28991,52.386353,4.832901,Amsterdam,De Bretten - Voetbal Velden,Dog Run,http://tour-pedia.org/api/getReviewsByPlaceId?placeId=28991,57
attraction,28992,52.390527,4.827833,Amsterdam,George Garage,Nightclub,http://tour-pedia.org/api/getReviewsByPlaceId?placeId=28992,25
attraction,28993,52.38918,4.829037,Amsterdam,zaamdam,City,http://tour-pedia.org/api/getReviewsByPlaceId?placeId=28993,35
attraction,28994,52.385842,4.827633,Amsterdam,amsterdam panthers,Athletics  Sports,http://tour-pedia.org/api/getReviewsByPlaceId?placeId=28994,21
attraction,28995,52.389721,4.829888,Amsterdam,Xtradio,Nightclub,http://tour-pedia.org/api/getReviewsByPlaceId?placeId=28995,59
attraction,28996,52.390314,4.830869,Amsterdam,A93,Jazz Club,http://tour-pedia.org/api/getReviewsByPlaceId?placeId=28996,42
attraction,28997,52.386025,4.830366,Amsterdam,Spieringhorn Amsterdam,Park,http://tour-pedia.org/api/getReviewsByPlaceId?placeId=28997,48
attraction,28998,52.39024,4.831372,Amsterdam,Thai Event,General Entertainment,http://tour-pedia.org/api/getReviewsByPlaceId?placeId=28998,43
attraction,28999,52.390578,4.831385,Amsterdam,Salsa Congress,Arcade,http://tour-pedia.org/api/getReviewsByPlaceId?placeId=28999,53
attraction,29001,52.385872,4.832956,Amsterdam,Deccaweg 26,Art Museum,http://tour-pedia.org/api/getReviewsByPlaceId?placeId=29001,55
attraction,29002,52.380634,4.825138,Amsterdam,GLOW Party,Nightclub,http://tour-pedia.org/api/getReviewsByPlaceId?placeId=29002,39
attraction,29003,52.380197,4.827161,Amsterdam,GOLEB,Art Gallery,http://tour-pedia.org/api/getReviewsByPlaceId?placeId=29003,56
attraction,29004,52.3802,4.83203,Amsterdam,Shisha palace,Hookah Bar,http://tour-pedia.org/api/getReviewsByPlaceId?placeId=29004,15
attraction,29005,52.381399,4.832733,Amsterdam,AGK oefenruimte,Music Venue,http://tour-pedia.org/api/getReviewsByPlaceId?placeId=29005,59
attraction,29006,52.377051,4.834102,Amsterdam,Gerbrandypark,Park,http://tour-pedia.org/api/getReviewsByPlaceId?placeId=29006,46
attraction,29007,52.38058,4.8348,Amsterdam,Arcade Casino,Casino,http://tour-pedia.org/api/getReviewsByPlaceId?placeId=29007,32
attraction,29008,52.382309,4.836095,Amsterdam,Buurtcamping Slotermeer,Skydiving,http://tour-pedia.org/api/getReviewsByPlaceId?placeId=29008,36
attraction,29010,52.37584,4.834872,Amsterdam,Kramer Sluis,Bridge,http://tour-pedia.org/api/getReviewsByPlaceId?placeId=29010,57
attraction,29011,52.37829,4.834636,Amsterdam,Gebrandypark,General Entertainment,http://tour-pedia.org/api/getReviewsByPlaceId?placeId=29011,39
attraction,29012,52.371797,4.833621,Amsterdam,Slotervaart Tennis Vereniging,Baseball Field,http://tour-pedia.org/api/getReviewsByPlaceId?placeId=29012,58
attraction,29014,52.370111,4.830085,Amsterdam,Café Terras Oostoever,Dive Bar,http://tour-pedia.org/api/getReviewsByPlaceId?placeId=29014,50
attraction,29015,52.3734,4.82685,Amsterdam,Cafe Sloterplas,Pub,http://tour-pedia.org/api/getReviewsByPlaceId?placeId=29015,41
attraction,29016,52.3723,4.835538,Amsterdam,Floor 6 Crew,Hotel Bar,http://tour-pedia.org/api/getReviewsByPlaceId?placeId=29016,59
attraction,29017,52.37338,4.831944,Amsterdam,Ontdekhoek,General Entertainment,http://tour-pedia.org/api/getReviewsByPlaceId?placeId=29017,54
attraction,29018,52.372748,4.83201,Amsterdam,-10,Historic Site,http://tour-pedia.org/api/getReviewsByPlaceId?placeId=29018,31
attraction,29019,52.373773,4.834165,Amsterdam,Cramersluis,Bridge,http://tour-pedia.org/api/getReviewsByPlaceId?placeId=29019,29
attraction,29020,52.368881,4.831442,Amsterdam,Speeltuin mezquitalaan,Skydiving,http://tour-pedia.org/api/getReviewsByPlaceId?placeId=29020,30
attraction,29023,52.356417,4.827375,Amsterdam,Sierplein,Plaza,http://tour-pedia.org/api/getReviewsByPlaceId?placeId=29023,16
attraction,29025,52.355795,4.826581,Amsterdam,Het Siertje,Arcade,http://tour-pedia.org/api/getReviewsByPlaceId?placeId=29025,44
attraction,29026,52.355369,4.826591,Amsterdam,Sierplaza,Lounge,http://tour-pedia.org/api/getReviewsByPlaceId?placeId=29026,34
attraction,29027,52.356478,4.827623,Amsterdam,Vier Bankjes Aan De Sloterplas Zuidwest,Lake,http://tour-pedia.org/api/getReviewsByPlaceId?placeId=29027,17
attraction,29028,52.354517,4.832633,Amsterdam,Blauwe Speeltuintje,Skydiving,http://tour-pedia.org/api/getReviewsByPlaceId?placeId=29028,46
attraction,29029,52.357185,4.833808,Amsterdam,Hillsong connect Lelylaan,Lounge,http://tour-pedia.org/api/getReviewsByPlaceId?placeId=29029,33
attraction,29030,52.357796,4.834007,Amsterdam,Leox,Hookah Bar,http://tour-pedia.org/api/getReviewsByPlaceId?placeId=29030,17
attraction,29031,52.348703,4.820123,Amsterdam,Voetbalveldje,Soccer Field,http://tour-pedia.org/api/getReviewsByPlaceId?placeId=29031,39
attraction,29032,52.353482,4.832635,Amsterdam,Cafe de Rooseboom,Pub,http://tour-pedia.org/api/getReviewsByPlaceId?placeId=29032,43
attraction,29033,52.342849,4.828754,Amsterdam,Stadswild HQ,Athletics  Sports,http://tour-pedia.org/api/getReviewsByPlaceId?placeId=29033,32
attraction,29034,52.346234,4.830777,Amsterdam,RTVNH,General Entertainment,http://tour-pedia.org/api/getReviewsByPlaceId?placeId=29034,36
attraction,29036,52.347003,4.83029,Amsterdam,Staalmanpark,Park,http://tour-pedia.org/api/getReviewsByPlaceId?placeId=29036,25
attraction,29037,52.353414,4.833774,Amsterdam,Big Black Hot Box 40 Gr Celsius,Hot Spring,http://tour-pedia.org/api/getReviewsByPlaceId?placeId=29037,24
attraction,29038,52.344968,4.822677,Amsterdam,Fietspad Bij Slotervaart Zhs,Trail,http://tour-pedia.org/api/getReviewsByPlaceId?placeId=29038,40
attraction,29040,52.331143,4.829693,Amsterdam,Nieuwe Meer,Lake,http://tour-pedia.org/api/getReviewsByPlaceId?placeId=29040,57
attraction,29041,52.333777,4.83074,Amsterdam,Amsterdam Windsurfing,Harbor  Marina,http://tour-pedia.org/api/getReviewsByPlaceId?placeId=29041,42
attraction,29042,52.341372,4.836667,Amsterdam,Buitenspelen,Skydiving,http://tour-pedia.org/api/getReviewsByPlaceId?placeId=29042,21
attraction,29043,52.417571,4.837369,Amsterdam,Jan van Riebeeck Haven,Harbor  Marina,http://tour-pedia.org/api/getReviewsByPlaceId?placeId=29043,28
attraction,29045,52.394139,4.837005,Amsterdam,Freshmen Media Cocktailcorner,Cocktail Bar,http://tour-pedia.org/api/getReviewsByPlaceId?placeId=29045,21
attraction,29046,52.396107,4.838436,Amsterdam,In De Wachtruimte,General Entertainment,http://tour-pedia.org/api/getReviewsByPlaceId?placeId=29046,60
attraction,29047,52.395272,4.834798,Amsterdam,Westrandweg Run,Racetrack,http://tour-pedia.org/api/getReviewsByPlaceId?placeId=29047,39
attraction,29048,52.392673,4.833294,Amsterdam,Werkwoonfietsen,Field,http://tour-pedia.org/api/getReviewsByPlaceId?placeId=29048,45
attraction,29049,52.396974,4.838921,Amsterdam,Wildkamperen,Nightclub,http://tour-pedia.org/api/getReviewsByPlaceId?placeId=29049,52
attraction,29050,52.394494,4.837555,Amsterdam,ArtFX Events,General Entertainment,http://tour-pedia.org/api/getReviewsByPlaceId?placeId=29050,21
attraction,29051,52.394056,4.837373,Amsterdam,lazy sundays,Hookah Bar,http://tour-pedia.org/api/getReviewsByPlaceId?placeId=29051,44
attraction,29052,52.391979,4.833933,Amsterdam,Filmset Hart Tegen Hard,General Entertainment,http://tour-pedia.org/api/getReviewsByPlaceId?placeId=29052,27
attraction,29053,52.39064,4.827879,Amsterdam,Srs,Nightclub,http://tour-pedia.org/api/getReviewsByPlaceId?placeId=29053,38
attraction,29054,52.39295,4.837337,Amsterdam,In De Zon. Buiten Elsevier.,Outdoors  Recreation,http://tour-pedia.org/api/getReviewsByPlaceId?placeId=29054,53
attraction,29055,52.392052,4.833473,Amsterdam,Krant Cafe TMG,Bar,http://tour-pedia.org/api/getReviewsByPlaceId?placeId=29055,38
attraction,29057,52.393191,4.837566,Amsterdam,De Trap Af RE,Racetrack,http://tour-pedia.org/api/getReviewsByPlaceId?placeId=29057,38
attraction,29058,52.390501,4.83119,Amsterdam,Cheap 'n Chic,Nightclub,http://tour-pedia.org/api/getReviewsByPlaceId?placeId=29058,16
attraction,29059,52.390109,4.83035,Amsterdam,MTTM Bar,Bar,http://tour-pedia.org/api/getReviewsByPlaceId?placeId=29059,49
attraction,29060,52.389763,4.830788,Amsterdam,Ballorig bijlmer arena,General Entertainment,http://tour-pedia.org/api/getReviewsByPlaceId?placeId=29060,34
attraction,29061,52.391967,4.83761,Amsterdam,Into The Moesson,Dog Run,http://tour-pedia.org/api/getReviewsByPlaceId?placeId=29061,35
attraction,29062,52.390696,4.836441,Amsterdam,Thai Charity Event,General Entertainment,http://tour-pedia.org/api/getReviewsByPlaceId?placeId=29062,18
attraction,29063,52.390937,4.837695,Amsterdam,Energetica,Arts  Entertainment,http://tour-pedia.org/api/getReviewsByPlaceId?placeId=29063,28
attraction,29064,52.390679,4.838066,Amsterdam,Bed @ MEININGER Hotel Amsterdam,Strip Club,http://tour-pedia.org/api/getReviewsByPlaceId?placeId=29064,52
attraction,29065,52.390681,4.839161,Amsterdam,Kantor,Event Space,http://tour-pedia.org/api/getReviewsByPlaceId?placeId=29065,38
attraction,29067,52.388518,4.839747,Amsterdam,De Amsterdamsche Tram,Beer Garden,http://tour-pedia.org/api/getReviewsByPlaceId?placeId=29067,51
attraction,29068,52.387015,4.838825,Amsterdam,Trammeland,Music Venue,http://tour-pedia.org/api/getReviewsByPlaceId?placeId=29068,47
attraction,29070,52.385239,4.839821,Amsterdam,Karaoke 3,Karaoke Bar,http://tour-pedia.org/api/getReviewsByPlaceId?placeId=29070,38
attraction,29072,52.388297,4.840457,Amsterdam,Voetbalveldje Sloterdijk,Athletics  Sports,http://tour-pedia.org/api/getReviewsByPlaceId?placeId=29072,26
attraction,29073,52.375128,4.842052,Amsterdam,Mountain Network Amsterdam,Rock Climbing Spot,http://tour-pedia.org/api/getReviewsByPlaceId?placeId=29073,28
attraction,29075,52.384099,4.837883,Amsterdam,Mike's Pot,Concert Hall,http://tour-pedia.org/api/getReviewsByPlaceId?placeId=29075,36
attraction,29076,52.375791,4.83837,Amsterdam,Erasmusgracht,Dog Run,http://tour-pedia.org/api/getReviewsByPlaceId?placeId=29076,34
attraction,29077,52.376354,4.838416,Amsterdam,Timo's Playground,Dog Run,http://tour-pedia.org/api/getReviewsByPlaceId?placeId=29077,33
attraction,29078,52.377399,4.839245,Amsterdam,Scala,Arcade,http://tour-pedia.org/api/getReviewsByPlaceId?placeId=29078,39
attraction,29080,52.384046,4.838061,Amsterdam,Peter's WordFeud Hoekje,Pool Hall,http://tour-pedia.org/api/getReviewsByPlaceId?placeId=29080,49
attraction,29081,52.377273,4.840872,Amsterdam,Kolenkit ijsbaantje,Skating Rink,http://tour-pedia.org/api/getReviewsByPlaceId?placeId=29081,26
attraction,29082,52.386696,4.843755,Amsterdam,Sloterdijk football pitch,Soccer Field,http://tour-pedia.org/api/getReviewsByPlaceId?placeId=29082,52
attraction,29083,52.372642,4.840573,Amsterdam,Sporthal Laan van Spartaan,Athletics  Sports,http://tour-pedia.org/api/getReviewsByPlaceId?placeId=29083,20
attraction,29084,52.36994,4.836519,Amsterdam,Wild FM,General Entertainment,http://tour-pedia.org/api/getReviewsByPlaceId?placeId=29084,39
attraction,29087,52.363307,4.837726,Amsterdam,August Allebeplein,Plaza,http://tour-pedia.org/api/getReviewsByPlaceId?placeId=29087,24
attraction,29088,52.363383,4.836514,Amsterdam,Kleine Nachtwacht,Bar,http://tour-pedia.org/api/getReviewsByPlaceId?placeId=29088,48
attraction,29089,52.368161,4.843577,Amsterdam,Dihoo's Farm,Nightclub,http://tour-pedia.org/api/getReviewsByPlaceId?placeId=29089,22
attraction,29090,52.365919,4.846347,Amsterdam,Edelwise Festival,General Entertainment,http://tour-pedia.org/api/getReviewsByPlaceId?placeId=29090,41
attraction,29091,52.367481,4.845078,Amsterdam,kinderboerderij Uylenburg,Farm,http://tour-pedia.org/api/getReviewsByPlaceId?placeId=29091,17
attraction,29092,52.368063,4.844174,Amsterdam,Health Club Open Air Rembrandpark,Athletics  Sports,http://tour-pedia.org/api/getReviewsByPlaceId?placeId=29092,47
attraction,29093,52.367573,4.844715,Amsterdam,Kinderboerderij Rembrandtpark,Farm,http://tour-pedia.org/api/getReviewsByPlaceId?placeId=29093,26
attraction,29094,52.355307,4.839708,Amsterdam,Universal screeningroom,Movie Theater,http://tour-pedia.org/api/getReviewsByPlaceId?placeId=29094,56
attraction,29095,52.353415,4.839877,Amsterdam,Koningin Wilhelminaplein,Plaza,http://tour-pedia.org/api/getReviewsByPlaceId?placeId=29095,22
attraction,29096,52.353822,4.838018,Amsterdam,Koningin Wilhelminapark,Park,http://tour-pedia.org/api/getReviewsByPlaceId?placeId=29096,15
attraction,29097,52.355526,4.838711,Amsterdam,Sport 1,Athletics  Sports,http://tour-pedia.org/api/getReviewsByPlaceId?placeId=29097,47
attraction,29098,52.353455,4.840656,Amsterdam,Schilderatelier Hans Verwoerd,Art Gallery,http://tour-pedia.org/api/getReviewsByPlaceId?placeId=29098,34
attraction,29099,52.353578,4.839628,Amsterdam,Parkeerdek gebouw Prinsenhof,Event Space,http://tour-pedia.org/api/getReviewsByPlaceId?placeId=29099,35
attraction,29100,52.361848,4.836388,Amsterdam,Jan Tooropstraat,Nightclub,http://tour-pedia.org/api/getReviewsByPlaceId?placeId=29100,34
attraction,29102,52.353893,4.836345,Amsterdam,Monique's Peespaleis,Strip Club,http://tour-pedia.org/api/getReviewsByPlaceId?placeId=29102,30
attraction,29103,52.363561,4.835096,Amsterdam,Zondagmiddag bij Vlla,General Entertainment,http://tour-pedia.org/api/getReviewsByPlaceId?placeId=29103,47
attraction,29104,52.36132,4.843206,Amsterdam,Cinema di Noche Woche,Movie Theater,http://tour-pedia.org/api/getReviewsByPlaceId?placeId=29104,42
attraction,29105,52.360381,4.839861,Amsterdam,Skate Invaders Headquarters,Sports Bar,http://tour-pedia.org/api/getReviewsByPlaceId?placeId=29105,50
attraction,29106,52.353234,4.841107,Amsterdam,Office Robert,General Entertainment,http://tour-pedia.org/api/getReviewsByPlaceId?placeId=29106,38
attraction,29107,52.349045,4.837066,Amsterdam,Ghettocrib Steyn,Comedy Club,http://tour-pedia.org/api/getReviewsByPlaceId?placeId=29107,39
attraction,29108,52.34937,4.840253,Amsterdam,Delflandplein,Plaza,http://tour-pedia.org/api/getReviewsByPlaceId?placeId=29108,46
attraction,29109,52.346966,4.839966,Amsterdam,bushalte 145,Strip Club,http://tour-pedia.org/api/getReviewsByPlaceId?placeId=29109,25
attraction,29111,52.354361,4.842081,Amsterdam,health city,Athletics  Sports,http://tour-pedia.org/api/getReviewsByPlaceId?placeId=29111,25
attraction,29112,52.336608,4.838111,Amsterdam,"Tuinpark ""Ons Buiten""",Garden,http://tour-pedia.org/api/getReviewsByPlaceId?placeId=29112,51
attraction,29113,52.34219,4.843164,Amsterdam,Alda Events,General Entertainment,http://tour-pedia.org/api/getReviewsByPlaceId?placeId=29113,39
attraction,29115,52.346147,4.830572,Amsterdam,AT5 Redactie,General Entertainment,http://tour-pedia.org/api/getReviewsByPlaceId?placeId=29115,23
attraction,29116,52.342778,4.841962,Amsterdam,Fjuze,General Entertainment,http://tour-pedia.org/api/getReviewsByPlaceId?placeId=29116,27
attraction,29117,52.347386,4.841449,Amsterdam,basketballen tijdens nachtdienst,Kayaking,http://tour-pedia.org/api/getReviewsByPlaceId?placeId=29117,23
attraction,29120,52.343409,4.838289,Amsterdam,KNVB West I,Athletics  Sports,http://tour-pedia.org/api/getReviewsByPlaceId?placeId=29120,59
attraction,29121,52.348897,4.832922,Amsterdam,De Staalman (kunstwerk beer),Sculpture Garden,http://tour-pedia.org/api/getReviewsByPlaceId?placeId=29121,17
attraction,29122,52.342119,4.843517,Amsterdam,David Lewis Productions,Music Venue,http://tour-pedia.org/api/getReviewsByPlaceId?placeId=29122,59
attraction,29124,52.34592,4.838783,Amsterdam,Nargilehut,Hookah Bar,http://tour-pedia.org/api/getReviewsByPlaceId?placeId=29124,59
attraction,29125,52.34361,4.841012,Amsterdam,Schinkelsluisje,Harbor  Marina,http://tour-pedia.org/api/getReviewsByPlaceId?placeId=29125,20
attraction,29126,52.348011,4.839797,Amsterdam,Moestuintje,Garden,http://tour-pedia.org/api/getReviewsByPlaceId?placeId=29126,38
attraction,29127,52.340435,4.842865,Amsterdam,KX Radio,Rock Club,http://tour-pedia.org/api/getReviewsByPlaceId?placeId=29127,20
attraction,29128,52.335088,4.821647,Amsterdam,Ravelina am See,Beach,http://tour-pedia.org/api/getReviewsByPlaceId?placeId=29128,55
attraction,29129,52.332566,4.832068,Amsterdam,Allure @ Riekerplas,Lake,http://tour-pedia.org/api/getReviewsByPlaceId?placeId=29129,48
attraction,29130,52.340838,4.832244,Amsterdam,"P.D.C. ""De Volharding""",Dog Run,http://tour-pedia.org/api/getReviewsByPlaceId?placeId=29130,29
attraction,29132,52.337497,4.839399,Amsterdam,"Heineken, Apple Pie and Tabs Bar",Bar,http://tour-pedia.org/api/getReviewsByPlaceId?placeId=29132,39
attraction,29133,52.342652,4.820423,Amsterdam,Eeyores Gloomy Place,Outdoors  Recreation,http://tour-pedia.org/api/getReviewsByPlaceId?placeId=29133,30
attraction,29135,52.342652,4.820393,Amsterdam,atelier pipa,Art Gallery,http://tour-pedia.org/api/getReviewsByPlaceId?placeId=29135,24
attraction,29137,52.328225,4.816389,Amsterdam,Jachthaven Helmsman,Harbor  Marina,http://tour-pedia.org/api/getReviewsByPlaceId?placeId=29137,54
attraction,29138,52.337824,4.812267,Amsterdam,Vv Beursbengels,Soccer Field,http://tour-pedia.org/api/getReviewsByPlaceId?placeId=29138,46
attraction,29139,52.337166,4.842381,Amsterdam,Disco classic party,Bar,http://tour-pedia.org/api/getReviewsByPlaceId?placeId=29139,43
attraction,29140,52.328168,4.81653,Amsterdam,Jachthaven Driessen,Harbor  Marina,http://tour-pedia.org/api/getReviewsByPlaceId?placeId=29140,20
attraction,29141,52.346014,4.82606,Amsterdam,TMZ 2.0,Concert Hall,http://tour-pedia.org/api/getReviewsByPlaceId?placeId=29141,48
attraction,29142,52.342601,4.811766,Amsterdam,Dogsquare,Dog Run,http://tour-pedia.org/api/getReviewsByPlaceId?placeId=29142,25
attraction,29143,52.342344,4.81179,Amsterdam,EffeEkdom,General Entertainment,http://tour-pedia.org/api/getReviewsByPlaceId?placeId=29143,39
attraction,29157,52.328173,4.816532,Amsterdam,Hotspot Nico,Gay Bar,http://tour-pedia.org/api/getReviewsByPlaceId?placeId=29157,39
attraction,29173,52.398718,4.847301,Amsterdam,Sneeuw,Ski Area,http://tour-pedia.org/api/getReviewsByPlaceId?placeId=29173,58
attraction,29174,52.391681,4.845472,Amsterdam,twellingae,Harbor  Marina,http://tour-pedia.org/api/getReviewsByPlaceId?placeId=29174,59
attraction,29175,52.390263,4.843102,Amsterdam,Dog Run Adam,Dog Run,http://tour-pedia.org/api/getReviewsByPlaceId?placeId=29175,54
attraction,29176,52.38956,4.838609,Amsterdam,Actimel NK Doordeplassenfietsen,Racetrack,http://tour-pedia.org/api/getReviewsByPlaceId?placeId=29176,17
attraction,29177,52.388021,4.837636,Amsterdam,Chartist CoffeStop,Comedy Club,http://tour-pedia.org/api/getReviewsByPlaceId?placeId=29177,38
attraction,29178,52.385655,4.832992,Amsterdam,Hondenschool Serius,Dog Run,http://tour-pedia.org/api/getReviewsByPlaceId?placeId=29178,36
attraction,29180,52.388104,4.84679,Amsterdam,Spaarndammerdijkie 💙,Wine Bar,http://tour-pedia.org/api/getReviewsByPlaceId?placeId=29180,49
attraction,29181,52.392982,4.850451,Amsterdam,Partycentrum De Koning,Music Venue,http://tour-pedia.org/api/getReviewsByPlaceId?placeId=29181,22
attraction,29182,52.386277,4.846998,Amsterdam,De Verdwenen Boer,Plaza,http://tour-pedia.org/api/getReviewsByPlaceId?placeId=29182,27
attraction,29183,52.384931,4.847782,Amsterdam,Baseball Amsterdam,Baseball Field,http://tour-pedia.org/api/getReviewsByPlaceId?placeId=29183,46
attraction,29184,52.385345,4.846993,Amsterdam,420 In Amsterdam,General Entertainment,http://tour-pedia.org/api/getReviewsByPlaceId?placeId=29184,26
attraction,29185,52.38406,4.842536,Amsterdam,Avv Sloterdijk,Garden,http://tour-pedia.org/api/getReviewsByPlaceId?placeId=29185,37
attraction,29186,52.387021,4.843705,Amsterdam,Lebensgefahr T3chno,Nightclub,http://tour-pedia.org/api/getReviewsByPlaceId?placeId=29186,60
attraction,29187,52.378111,4.846121,Amsterdam,Bos en Lommerplein,Plaza,http://tour-pedia.org/api/getReviewsByPlaceId?placeId=29187,33
attraction,29189,52.380544,4.848245,Amsterdam,Een Park,Park,http://tour-pedia.org/api/getReviewsByPlaceId?placeId=29189,25
attraction,29190,52.383803,4.846201,Amsterdam,Biljartcentrum Sloterdijk,Pool Hall,http://tour-pedia.org/api/getReviewsByPlaceId?placeId=29190,44
attraction,29193,52.376613,4.845885,Amsterdam,Bos en Lommerplantsoen,Field,http://tour-pedia.org/api/getReviewsByPlaceId?placeId=29193,48
attraction,29198,52.371625,4.846293,Amsterdam,Mercatorbad,Pool,http://tour-pedia.org/api/getReviewsByPlaceId?placeId=29198,23
attraction,29199,52.370627,4.847445,Amsterdam,Speeltuin Mercator,Skydiving,http://tour-pedia.org/api/getReviewsByPlaceId?placeId=29199,32
attraction,29200,52.372824,4.849388,Amsterdam,Op de bank bij GvZ,Cocktail Bar,http://tour-pedia.org/api/getReviewsByPlaceId?placeId=29200,57
attraction,29201,52.37015,4.850838,Amsterdam,Mercatorplein,Plaza,http://tour-pedia.org/api/getReviewsByPlaceId?placeId=29201,29
attraction,29202,52.373896,4.849332,Amsterdam,Feija's paleis,Home private,http://tour-pedia.org/api/getReviewsByPlaceId?placeId=29202,57
attraction,29203,52.36761,4.853448,Amsterdam,Magalhaensplein,Plaza,http://tour-pedia.org/api/getReviewsByPlaceId?placeId=29203,20
attraction,29204,52.364293,4.853039,Amsterdam,YagoY,Athletics  Sports,http://tour-pedia.org/api/getReviewsByPlaceId?placeId=29204,55
attraction,29206,52.369697,4.851139,Amsterdam,West'ival,Movie Theater,http://tour-pedia.org/api/getReviewsByPlaceId?placeId=29206,20
attraction,29207,52.369812,4.849373,Amsterdam,Coffeeshop Happiness,Smoke Shop,http://tour-pedia.org/api/getReviewsByPlaceId?placeId=29207,35
attraction,29209,52.370097,4.849434,Amsterdam,"Café Knibbel, Knabbel, Knuisje",Bar,http://tour-pedia.org/api/getReviewsByPlaceId?placeId=29209,36
attraction,29210,52.357637,4.844386,Amsterdam,Skyy Bar,Lounge,http://tour-pedia.org/api/getReviewsByPlaceId?placeId=29210,36
attraction,29213,52.354858,4.844767,Amsterdam,Westlandgracht,Lake,http://tour-pedia.org/api/getReviewsByPlaceId?placeId=29213,39
attraction,29214,52.35822,4.848587,Amsterdam,Rembrantpark,Park,http://tour-pedia.org/api/getReviewsByPlaceId?placeId=29214,53
attraction,29215,52.358155,4.848161,Amsterdam,Schildpadvijver Rembrandtpark,Lake,http://tour-pedia.org/api/getReviewsByPlaceId?placeId=29215,59
attraction,29216,52.364794,4.846281,Amsterdam,'t Landje,Skydiving,http://tour-pedia.org/api/getReviewsByPlaceId?placeId=29216,30
attraction,29217,52.365998,4.841641,Amsterdam,Bootcamp@Rembrandtpark by Healthclub OpenAir,Athletics  Sports,http://tour-pedia.org/api/getReviewsByPlaceId?placeId=29217,51
attraction,29219,52.36794,4.844693,Amsterdam,Sauna Ramada Apollo,Hot Spring,http://tour-pedia.org/api/getReviewsByPlaceId?placeId=29219,15
attraction,29220,52.368565,4.84779,Amsterdam,Speeltuin Rembrandtpark,Skydiving,http://tour-pedia.org/api/getReviewsByPlaceId?placeId=29220,49
attraction,29221,52.351497,4.849811,Amsterdam,Hoofddorpplein,Plaza,http://tour-pedia.org/api/getReviewsByPlaceId?placeId=29221,57
attraction,29227,52.348268,4.84655,Amsterdam,Buurtmoestuin,Garden,http://tour-pedia.org/api/getReviewsByPlaceId?placeId=29227,56
attraction,29228,52.342758,4.846219,Amsterdam,TBWA\ Bar,Bar,http://tour-pedia.org/api/getReviewsByPlaceId?placeId=29228,60
attraction,29229,52.349481,4.848898,Amsterdam,The Magpie,Bar,http://tour-pedia.org/api/getReviewsByPlaceId?placeId=29229,30
attraction,29230,52.348083,4.846338,Amsterdam,Speeltuin Abbenesstraat,Skydiving,http://tour-pedia.org/api/getReviewsByPlaceId?placeId=29230,33
attraction,29231,52.35484,4.850728,Amsterdam,Theophile De Bockstraat Cows,Sculpture Garden,http://tour-pedia.org/api/getReviewsByPlaceId?placeId=29231,37
attraction,29232,52.344053,4.848564,Amsterdam,Jaagpad,Dog Run,http://tour-pedia.org/api/getReviewsByPlaceId?placeId=29232,55
attraction,29233,52.349251,4.850586,Amsterdam,Rietwijker crib,Lounge,http://tour-pedia.org/api/getReviewsByPlaceId?placeId=29233,16
attraction,29237,52.337667,4.847134,Amsterdam,Nieuwemeet,Outdoors  Recreation,http://tour-pedia.org/api/getReviewsByPlaceId?placeId=29237,28
attraction,29239,52.337264,4.84716,Amsterdam,Nieuwe meer Sluis,Bridge,http://tour-pedia.org/api/getReviewsByPlaceId?placeId=29239,46
attraction,29240,52.340895,4.849691,Amsterdam,Speeltuin IJsbaanpad,Skydiving,http://tour-pedia.org/api/getReviewsByPlaceId?placeId=29240,43
attraction,29242,52.343592,4.846923,Amsterdam,Atelier De Generaal,Art Gallery,http://tour-pedia.org/api/getReviewsByPlaceId?placeId=29242,53
attraction,29243,52.338506,4.845263,Amsterdam,Zonneterras Joy Jaagpad,Bar,http://tour-pedia.org/api/getReviewsByPlaceId?placeId=29243,44
attraction,29244,52.337308,4.848559,Amsterdam,M.E.M.I.E. (Bronkhorsts Bootje),Outdoors  Recreation,http://tour-pedia.org/api/getReviewsByPlaceId?placeId=29244,39
attraction,29246,52.346923,4.848972,Amsterdam,'t Huis te Vraag,Boating,http://tour-pedia.org/api/getReviewsByPlaceId?placeId=29246,20
attraction,29247,52.334809,4.849589,Amsterdam,Jachthaven De Koene,Harbor  Marina,http://tour-pedia.org/api/getReviewsByPlaceId?placeId=29247,30
attraction,29248,52.332933,4.850254,Amsterdam,Jachthaven Meerzicht,Harbor  Marina,http://tour-pedia.org/api/getReviewsByPlaceId?placeId=29248,47
attraction,29249,52.335565,4.84836,Amsterdam,Het Bosch,Harbor  Marina,http://tour-pedia.org/api/getReviewsByPlaceId?placeId=29249,45
attraction,29250,52.330726,4.844075,Amsterdam,Jachthaven (marina) De Koenen,Harbor  Marina,http://tour-pedia.org/api/getReviewsByPlaceId?placeId=29250,21
attraction,29251,52.334715,4.849595,Amsterdam,WV De Koenen,Harbor  Marina,http://tour-pedia.org/api/getReviewsByPlaceId?placeId=29251,48
attraction,29252,52.336583,4.848489,Amsterdam,Jachthaven Wva,Harbor  Marina,http://tour-pedia.org/api/getReviewsByPlaceId?placeId=29252,31
attraction,29253,52.335448,4.848061,Amsterdam,Jazz At The Lake,Lake,http://tour-pedia.org/api/getReviewsByPlaceId?placeId=29253,20
attraction,29254,52.332798,4.845972,Amsterdam,Cruise&Dance,Music Venue,http://tour-pedia.org/api/getReviewsByPlaceId?placeId=29254,49
attraction,29255,52.332972,4.849037,Amsterdam,Davy & Orsted,Harbor  Marina,http://tour-pedia.org/api/getReviewsByPlaceId?placeId=29255,24
attraction,29256,52.338151,4.84883,Amsterdam,Het Trefpunt,Cocktail Bar,http://tour-pedia.org/api/getReviewsByPlaceId?placeId=29256,42
attraction,29257,52.3331,4.850851,Amsterdam,Meervaart,Harbor  Marina,http://tour-pedia.org/api/getReviewsByPlaceId?placeId=29257,29
attraction,29265,52.332248,4.846285,Amsterdam,Cruise & Dance - Dj Boot(h),Water Park,http://tour-pedia.org/api/getReviewsByPlaceId?placeId=29265,35
attraction,29272,52.331119,4.850914,Amsterdam,Spa Zuiver Tennis,Tennis Court,http://tour-pedia.org/api/getReviewsByPlaceId?placeId=29272,16
attraction,29273,52.33622,4.84897,Amsterdam,Watersportvereniging amsterdam,Harbor  Marina,http://tour-pedia.org/api/getReviewsByPlaceId?placeId=29273,32
attraction,29281,52.408571,4.858659,Amsterdam,Haven Amsterdam,Harbor  Marina,http://tour-pedia.org/api/getReviewsByPlaceId?placeId=29281,16
attraction,29282,52.393954,4.850965,Amsterdam,Moves! Dance Warehouse,Dance Studio,http://tour-pedia.org/api/getReviewsByPlaceId?placeId=29282,46
attraction,29283,52.393989,4.85198,Amsterdam,GZG Feest,Nightclub,http://tour-pedia.org/api/getReviewsByPlaceId?placeId=29283,24
attraction,29284,52.393192,4.852166,Amsterdam,Heartland Studio,Music Venue,http://tour-pedia.org/api/getReviewsByPlaceId?placeId=29284,41
attraction,29285,52.395128,4.855258,Amsterdam,29e Shortrally Amsterdam,Racetrack,http://tour-pedia.org/api/getReviewsByPlaceId?placeId=29285,32
attraction,29287,52.388198,4.840302,Amsterdam,Dimi's dome,Bowling Alley,http://tour-pedia.org/api/getReviewsByPlaceId?placeId=29287,30
attraction,29288,52.388301,4.838878,Amsterdam,Wots Plees,Hiking,http://tour-pedia.org/api/getReviewsByPlaceId?placeId=29288,30
attraction,29289,52.391657,4.852836,Amsterdam,Studio Westpoort,Nightclub,http://tour-pedia.org/api/getReviewsByPlaceId?placeId=29289,50
attraction,29291,52.384515,4.847835,Amsterdam,Het Bos en Lommerse Balkon,Garden,http://tour-pedia.org/api/getReviewsByPlaceId?placeId=29291,57
attraction,29292,52.385871,4.84703,Amsterdam,The Bar,Cocktail Bar,http://tour-pedia.org/api/getReviewsByPlaceId?placeId=29292,25
attraction,29293,52.388644,4.855528,Amsterdam,Tuinpark Nut & Genoegen,Park,http://tour-pedia.org/api/getReviewsByPlaceId?placeId=29293,42
attraction,29294,52.383123,4.847425,Amsterdam,Kindercentrum het Groeiparadijs,Skydiving,http://tour-pedia.org/api/getReviewsByPlaceId?placeId=29294,54
attraction,29295,52.3843,4.847992,Amsterdam,De keukentafel,Hookah Bar,http://tour-pedia.org/api/getReviewsByPlaceId?placeId=29295,36
attraction,29296,52.384524,4.848093,Amsterdam,Dakterras B&L,Garden,http://tour-pedia.org/api/getReviewsByPlaceId?placeId=29296,60
attraction,29297,52.385737,4.855485,Amsterdam,Running route Westerpark,Trail,http://tour-pedia.org/api/getReviewsByPlaceId?placeId=29297,52
attraction,29298,52.381064,4.839403,Amsterdam,Cruijff Court Kolenkit,Soccer Field,http://tour-pedia.org/api/getReviewsByPlaceId?placeId=29298,51
attraction,29299,52.378605,4.850439,Amsterdam,Café 't Lommertje,Bar,http://tour-pedia.org/api/getReviewsByPlaceId?placeId=29299,29
attraction,29300,52.382263,4.852583,Amsterdam,De Kuil,Sculpture Garden,http://tour-pedia.org/api/getReviewsByPlaceId?placeId=29300,37
attraction,29301,52.377292,4.853949,Amsterdam,Kinderboerderij Nieuw Bos en Lommer,Skydiving,http://tour-pedia.org/api/getReviewsByPlaceId?placeId=29301,48
attraction,29302,52.379533,4.853758,Amsterdam,The Mansion,Cocktail Bar,http://tour-pedia.org/api/getReviewsByPlaceId?placeId=29302,41
attraction,29303,52.383101,4.858596,Amsterdam,Another Something & Co.,Planetarium,http://tour-pedia.org/api/getReviewsByPlaceId?placeId=29303,51
attraction,29304,52.379269,4.856765,Amsterdam,De Fluiter,Bar,http://tour-pedia.org/api/getReviewsByPlaceId?placeId=29304,23
attraction,29306,52.37398,4.854454,Amsterdam,Vierwindstrekenbrug,Bridge,http://tour-pedia.org/api/getReviewsByPlaceId?placeId=29306,35
attraction,29307,52.381572,4.856386,Amsterdam,'t Binnepretje,Bar,http://tour-pedia.org/api/getReviewsByPlaceId?placeId=29307,29
attraction,29308,52.381651,4.857202,Amsterdam,Chicarica Producties,General Entertainment,http://tour-pedia.org/api/getReviewsByPlaceId?placeId=29308,41
attraction,29310,52.371817,4.850362,Amsterdam,Residence Monsieur,Strip Club,http://tour-pedia.org/api/getReviewsByPlaceId?placeId=29310,40
attraction,29311,52.370895,4.85636,Amsterdam,Admiralengracht,River,http://tour-pedia.org/api/getReviewsByPlaceId?placeId=29311,31
attraction,29312,52.373354,4.862513,Amsterdam,Hoom JuR + Lijn,Home private,http://tour-pedia.org/api/getReviewsByPlaceId?placeId=29312,19
attraction,29313,52.374637,4.857739,Amsterdam,Cafe Sportpark,Bar,http://tour-pedia.org/api/getReviewsByPlaceId?placeId=29313,19
attraction,29315,52.375815,4.856504,Amsterdam,Blauwwithal,Stadium,http://tour-pedia.org/api/getReviewsByPlaceId?placeId=29315,31
attraction,29317,52.375956,4.8568,Amsterdam,Volleybalvereniging Amsterdam,Volleyball Court,http://tour-pedia.org/api/getReviewsByPlaceId?placeId=29317,52
attraction,29318,52.365708,4.85527,Amsterdam,Columbusplein,Plaza,http://tour-pedia.org/api/getReviewsByPlaceId?placeId=29318,31
attraction,29321,52.358102,4.8523,Amsterdam,Surinameplein,Plaza,http://tour-pedia.org/api/getReviewsByPlaceId?placeId=29321,22
attraction,29322,52.368787,4.855637,Amsterdam,Inside Out Project,Art Gallery,http://tour-pedia.org/api/getReviewsByPlaceId?placeId=29322,56
attraction,29324,52.357791,4.854294,Amsterdam,Caffe Oslo,Bar,http://tour-pedia.org/api/getReviewsByPlaceId?placeId=29324,30
attraction,29325,52.360067,4.854635,Amsterdam,Paramariboplein,Plaza,http://tour-pedia.org/api/getReviewsByPlaceId?placeId=29325,42
attraction,29326,52.35926,4.858088,Amsterdam,J.J. Cremerplein,Plaza,http://tour-pedia.org/api/getReviewsByPlaceId?placeId=29326,32
attraction,29327,52.357641,4.855957,Amsterdam,David Lloyd Swimming Pool Area,Pool,http://tour-pedia.org/api/getReviewsByPlaceId?placeId=29327,60
attraction,29328,52.358117,4.85521,Amsterdam,Overtoomsesluis,Bridge,http://tour-pedia.org/api/getReviewsByPlaceId?placeId=29328,49
attraction,29329,52.354069,4.855717,Amsterdam,De Doofpot,Bar,http://tour-pedia.org/api/getReviewsByPlaceId?placeId=29329,53
attraction,29330,52.354472,4.85558,Amsterdam,OCCII,Music Venue,http://tour-pedia.org/api/getReviewsByPlaceId?placeId=29330,32
attraction,29331,52.352335,4.856572,Amsterdam,Café Bedier,Bar,http://tour-pedia.org/api/getReviewsByPlaceId?placeId=29331,34
attraction,29332,52.360592,4.859361,Amsterdam,Figuranten Bar,Bar,http://tour-pedia.org/api/getReviewsByPlaceId?placeId=29332,33
attraction,29333,52.355772,4.856451,Amsterdam,Vondelpark BBQ Zone,Park,http://tour-pedia.org/api/getReviewsByPlaceId?placeId=29333,34
attraction,29334,52.352168,4.858788,Amsterdam,chram's,Home private,http://tour-pedia.org/api/getReviewsByPlaceId?placeId=29334,33
attraction,29335,52.357421,4.854677,Amsterdam,Cafe Sao Paulo,Bar,http://tour-pedia.org/api/getReviewsByPlaceId?placeId=29335,60
attraction,29336,52.354779,4.853532,Amsterdam,Theophile de Bockbrug (Brug 360),Bridge,http://tour-pedia.org/api/getReviewsByPlaceId?placeId=29336,29
attraction,29337,52.361135,4.855399,Amsterdam,De wip-kip,Skydiving,http://tour-pedia.org/api/getReviewsByPlaceId?placeId=29337,29
attraction,29338,52.360137,4.856608,Amsterdam,NJMT,Dance Studio,http://tour-pedia.org/api/getReviewsByPlaceId?placeId=29338,45
attraction,29339,52.353597,4.855793,Amsterdam,Café Hans,Bar,http://tour-pedia.org/api/getReviewsByPlaceId?placeId=29339,52
attraction,29341,52.343389,4.85409,Amsterdam,Olympisch Stadion,Stadium,http://tour-pedia.org/api/getReviewsByPlaceId?placeId=29341,18
attraction,29342,52.35094,4.852352,Amsterdam,Zeilbrug,Bridge,http://tour-pedia.org/api/getReviewsByPlaceId?placeId=29342,17
attraction,29343,52.343389,4.855399,Amsterdam,Phanos Atletiek,Track Stadium,http://tour-pedia.org/api/getReviewsByPlaceId?placeId=29343,26
attraction,29346,52.341973,4.851279,Amsterdam,ASV Arsenal,College Track,http://tour-pedia.org/api/getReviewsByPlaceId?placeId=29346,53
attraction,29348,52.3473,4.853831,Amsterdam,Butcher's Tears Brewery,Brewery,http://tour-pedia.org/api/getReviewsByPlaceId?placeId=29348,51
attraction,29349,52.35129,4.85587,Amsterdam,Eiland,Dog Run,http://tour-pedia.org/api/getReviewsByPlaceId?placeId=29349,46
attraction,29350,52.34393,4.854266,Amsterdam,Vrijfestival,Soccer Field,http://tour-pedia.org/api/getReviewsByPlaceId?placeId=29350,43
attraction,29351,52.34946,4.855602,Amsterdam,Het Spoor,Dog Run,http://tour-pedia.org/api/getReviewsByPlaceId?placeId=29351,26
attraction,29352,52.343718,4.851134,Amsterdam,parkeiland,Island,http://tour-pedia.org/api/getReviewsByPlaceId?placeId=29352,33
attraction,29353,52.345632,4.855021,Amsterdam,"Zwembad ""Het Kwartier""",Pool,http://tour-pedia.org/api/getReviewsByPlaceId?placeId=29353,46
attraction,29355,52.349352,4.857069,Amsterdam,Macy's Haarlemmermeerstation,Event Space,http://tour-pedia.org/api/getReviewsByPlaceId?placeId=29355,17
attraction,29356,52.344114,4.857477,Amsterdam,Stadionplein,Plaza,http://tour-pedia.org/api/getReviewsByPlaceId?placeId=29356,37
attraction,29357,52.339974,4.854133,Amsterdam,Sporthallen Zuid,Stadium,http://tour-pedia.org/api/getReviewsByPlaceId?placeId=29357,57
attraction,29359,52.34526,4.858626,Amsterdam,TCS Mizuno Half Marathon,Track Stadium,http://tour-pedia.org/api/getReviewsByPlaceId?placeId=29359,52
attraction,29360,52.340657,4.851005,Amsterdam,The White House,General Entertainment,http://tour-pedia.org/api/getReviewsByPlaceId?placeId=29360,54
attraction,29361,52.343292,4.852283,Amsterdam,Island Olymipisch Stadion,Island,http://tour-pedia.org/api/getReviewsByPlaceId?placeId=29361,22
attraction,29362,52.344512,4.852954,Amsterdam,CTO Olympisch Stadion #14,Stadium,http://tour-pedia.org/api/getReviewsByPlaceId?placeId=29362,59
attraction,29363,52.341106,4.857635,Amsterdam,Olympisch Stadion,General Entertainment,http://tour-pedia.org/api/getReviewsByPlaceId?placeId=29363,24
attraction,29364,52.344496,4.857574,Amsterdam,Startvak 21km,Athletics  Sports,http://tour-pedia.org/api/getReviewsByPlaceId?placeId=29364,40
attraction,29365,52.342975,4.857894,Amsterdam,Casa Di Koalino Piccolo,Garden,http://tour-pedia.org/api/getReviewsByPlaceId?placeId=29365,43
attraction,29366,52.344735,4.857622,Amsterdam,Borrelbar,Bar,http://tour-pedia.org/api/getReviewsByPlaceId?placeId=29366,34
attraction,29368,52.330958,4.852397,Amsterdam,Amstelpark tennis,Tennis Court,http://tour-pedia.org/api/getReviewsByPlaceId?placeId=29368,45
attraction,29371,52.334117,4.855877,Amsterdam,DLA Piper Bar,Bar,http://tour-pedia.org/api/getReviewsByPlaceId?placeId=29371,22
attraction,29374,52.33977,4.851494,Amsterdam,ALTC DDV,Tennis Court,http://tour-pedia.org/api/getReviewsByPlaceId?placeId=29374,53
attraction,29375,52.338644,4.85433,Amsterdam,Sc Buitenveldert,Field,http://tour-pedia.org/api/getReviewsByPlaceId?placeId=29375,39
attraction,29376,52.332623,4.859237,Amsterdam,Ronald McDonald VU Kinderstad,Skydiving,http://tour-pedia.org/api/getReviewsByPlaceId?placeId=29376,45
attraction,29379,52.340111,4.854157,Amsterdam,block around the clock,Skating Rink,http://tour-pedia.org/api/getReviewsByPlaceId?placeId=29379,53
attraction,29380,52.334172,4.861085,Amsterdam,VUmc Kinderstad,Skydiving,http://tour-pedia.org/api/getReviewsByPlaceId?placeId=29380,45
attraction,29383,52.413544,4.86303,Amsterdam,Feestboot,Nightclub,http://tour-pedia.org/api/getReviewsByPlaceId?placeId=29383,45
attraction,29384,52.424289,4.864089,Amsterdam,Noorder-IJplas,Lake,http://tour-pedia.org/api/getReviewsByPlaceId?placeId=29384,41
attraction,29385,52.401727,4.860923,Amsterdam,IGMA,Harbor  Marina,http://tour-pedia.org/api/getReviewsByPlaceId?placeId=29385,39
attraction,29386,52.393455,4.860205,Amsterdam,avv-sdz,Soccer Field,http://tour-pedia.org/api/getReviewsByPlaceId?placeId=29386,56
attraction,29387,52.390805,4.860577,Amsterdam,Ons Genoegen,Farm,http://tour-pedia.org/api/getReviewsByPlaceId?placeId=29387,18
attraction,29388,52.393542,4.859927,Amsterdam,Sdz,Soccer Field,http://tour-pedia.org/api/getReviewsByPlaceId?placeId=29388,17
attraction,29390,52.394046,4.856448,Amsterdam,Danstheater AYA,Dance Studio,http://tour-pedia.org/api/getReviewsByPlaceId?placeId=29390,31
attraction,29391,52.391245,4.856493,Amsterdam,Linda Kluis,Gay Bar,http://tour-pedia.org/api/getReviewsByPlaceId?placeId=29391,49
attraction,29392,52.390818,4.856695,Amsterdam,A Lisa Kluis,Arcade,http://tour-pedia.org/api/getReviewsByPlaceId?placeId=29392,48
attraction,29394,52.394946,4.864996,Amsterdam,ART4U kunstuitleen,Arts  Crafts Store,http://tour-pedia.org/api/getReviewsByPlaceId?placeId=29394,33
attraction,29395,52.3946,4.866066,Amsterdam,Globe Centers,Art Gallery,http://tour-pedia.org/api/getReviewsByPlaceId?placeId=29395,23
attraction,29396,52.390743,4.860608,Amsterdam,Buurtboederij,Farm,http://tour-pedia.org/api/getReviewsByPlaceId?placeId=29396,36
attraction,29397,52.390251,4.865938,Amsterdam,Het Woeste Westen,Skydiving,http://tour-pedia.org/api/getReviewsByPlaceId?placeId=29397,20
attraction,29399,52.383369,4.85447,Amsterdam,Gibraltarbadje,Pool,http://tour-pedia.org/api/getReviewsByPlaceId?placeId=29399,16
attraction,29400,52.391429,4.863128,Amsterdam,Sint Barbara,Boating,http://tour-pedia.org/api/getReviewsByPlaceId?placeId=29400,15
attraction,29401,52.380844,4.854049,Amsterdam,'t Sterntje,Bar,http://tour-pedia.org/api/getReviewsByPlaceId?placeId=29401,57
attraction,29402,52.381007,4.85387,Amsterdam,Kids Pitstop,Arcade,http://tour-pedia.org/api/getReviewsByPlaceId?placeId=29402,41
attraction,29403,52.380881,4.85409,Amsterdam,Studio K Amsterdam,General Entertainment,http://tour-pedia.org/api/getReviewsByPlaceId?placeId=29403,24
attraction,29404,52.380865,4.853747,Amsterdam,331 west,Design Studio,http://tour-pedia.org/api/getReviewsByPlaceId?placeId=29404,36
attraction,29405,52.382367,4.860188,Amsterdam,Staverno Jachtwerf,Harbor  Marina,http://tour-pedia.org/api/getReviewsByPlaceId?placeId=29405,34
attraction,29406,52.37963,4.852477,Amsterdam,Café Kooper,Pub,http://tour-pedia.org/api/getReviewsByPlaceId?placeId=29406,39
attraction,29408,52.384843,4.866992,Amsterdam,Jam studios Amsterdam,Rock Club,http://tour-pedia.org/api/getReviewsByPlaceId?placeId=29408,31
attraction,29409,52.383502,4.86374,Amsterdam,Schietsportvereniging,General Entertainment,http://tour-pedia.org/api/getReviewsByPlaceId?placeId=29409,24
attraction,29410,52.379877,4.861236,Amsterdam,Dog Walk WDZ,Dog Run,http://tour-pedia.org/api/getReviewsByPlaceId?placeId=29410,57
attraction,29411,52.37551,4.85654,Amsterdam,Tennisbaan Blauw-Wit,Tennis Court,http://tour-pedia.org/api/getReviewsByPlaceId?placeId=29411,29
attraction,29412,52.370143,4.865087,Amsterdam,Wiegbrug (Brug 173),Bridge,http://tour-pedia.org/api/getReviewsByPlaceId?placeId=29412,36
attraction,29413,52.368795,4.858919,Amsterdam,Your Voice,Music Venue,http://tour-pedia.org/api/getReviewsByPlaceId?placeId=29413,20
attraction,29414,52.371173,4.864138,Amsterdam,The Krommerdt Studio,Music Venue,http://tour-pedia.org/api/getReviewsByPlaceId?placeId=29414,20
attraction,29415,52.371026,4.863404,Amsterdam,Café Treffers,Pub,http://tour-pedia.org/api/getReviewsByPlaceId?placeId=29415,15
attraction,29416,52.368731,4.864313,Amsterdam,Kinderboerderij Zimmerhoeve,Farm,http://tour-pedia.org/api/getReviewsByPlaceId?placeId=29416,51
attraction,29417,52.364382,4.859429,Amsterdam,Edelwise,Beer Garden,http://tour-pedia.org/api/getReviewsByPlaceId?placeId=29417,19
attraction,29418,52.364822,4.859097,Amsterdam,iSound Studio Amsterdam,Music Venue,http://tour-pedia.org/api/getReviewsByPlaceId?placeId=29418,39
attraction,29419,52.366586,4.865108,Amsterdam,HJS Henny Jurriens Stichting,Dance Studio,http://tour-pedia.org/api/getReviewsByPlaceId?placeId=29419,38
attraction,29420,52.364758,4.864517,Amsterdam,Global Dance  Lab,Dance Studio,http://tour-pedia.org/api/getReviewsByPlaceId?placeId=29420,38
attraction,29421,52.360594,4.863211,Amsterdam,Staringplein,Plaza,http://tour-pedia.org/api/getReviewsByPlaceId?placeId=29421,36
attraction,29423,52.37005,4.865473,Amsterdam,2 Klaveren,Pub,http://tour-pedia.org/api/getReviewsByPlaceId?placeId=29423,20
attraction,29425,52.356711,4.860953,Amsterdam,Vondelpark dog playground,Dog Run,http://tour-pedia.org/api/getReviewsByPlaceId?placeId=29425,59
attraction,29426,52.352408,4.863967,Amsterdam,Valeriusplein,Field,http://tour-pedia.org/api/getReviewsByPlaceId?placeId=29426,36
attraction,29427,52.354445,4.863143,Amsterdam,Emmaplein,Park,http://tour-pedia.org/api/getReviewsByPlaceId?placeId=29427,20
attraction,29428,52.348562,4.860709,Amsterdam,Marathonweg - coffee - grill - bar,Bar,http://tour-pedia.org/api/getReviewsByPlaceId?placeId=29428,57
attraction,29429,52.352438,4.859951,Amsterdam,Koninginneweg,Plaza,http://tour-pedia.org/api/getReviewsByPlaceId?placeId=29429,46
attraction,29431,52.347012,4.863278,Amsterdam,Hygieaplein,Plaza,http://tour-pedia.org/api/getReviewsByPlaceId?placeId=29431,16
attraction,29432,52.34644,4.866785,Amsterdam,Olympiaplein,Plaza,http://tour-pedia.org/api/getReviewsByPlaceId?placeId=29432,23
attraction,29433,52.34641,4.865718,Amsterdam,De Hut,Bar,http://tour-pedia.org/api/getReviewsByPlaceId?placeId=29433,56
attraction,29434,52.335975,4.864225,Amsterdam,SC Buitenveldert,Soccer Field,http://tour-pedia.org/api/getReviewsByPlaceId?placeId=29434,39
attraction,29435,52.343727,4.86223,Amsterdam,Speeltuin Olympiaschool,Skydiving,http://tour-pedia.org/api/getReviewsByPlaceId?placeId=29435,46
attraction,29436,52.340717,4.861555,Amsterdam,Begraafplaats Buitenveldert,Boating,http://tour-pedia.org/api/getReviewsByPlaceId?placeId=29436,19
attraction,29437,52.350254,4.860231,Amsterdam,Home Sweet Home,Zoo,http://tour-pedia.org/api/getReviewsByPlaceId?placeId=29437,23
attraction,29439,52.351382,4.862982,Amsterdam,van der Cammen Residence de super-ultraluxe,Soccer Stadium,http://tour-pedia.org/api/getReviewsByPlaceId?placeId=29439,26
attraction,29440,52.329135,4.859817,Amsterdam,Tennispark Buitenveldert,Tennis Court,http://tour-pedia.org/api/getReviewsByPlaceId?placeId=29440,41
attraction,29443,52.336101,4.861546,Amsterdam,ActaBar,Bar,http://tour-pedia.org/api/getReviewsByPlaceId?placeId=29443,40
attraction,29444,52.415348,4.866919,Amsterdam,Betoncentrale Plak,Lounge,http://tour-pedia.org/api/getReviewsByPlaceId?placeId=29444,39
attraction,29445,52.413775,4.870823,Amsterdam,Total Tossers - magneet festival,General Entertainment,http://tour-pedia.org/api/getReviewsByPlaceId?placeId=29445,18
attraction,29447,52.413585,4.872072,Amsterdam,Collectiecentrum,History Museum,http://tour-pedia.org/api/getReviewsByPlaceId?placeId=29447,15
attraction,29449,52.419265,4.872517,Amsterdam,S.V. Vriendschap,Gym  Fitness Center,http://tour-pedia.org/api/getReviewsByPlaceId?placeId=29449,35
attraction,29450,52.408514,4.871329,Amsterdam,Lex' Mens Boat,Bar,http://tour-pedia.org/api/getReviewsByPlaceId?placeId=29450,51
attraction,29451,52.4099,4.8744,Amsterdam,bankje aan het IJ,River,http://tour-pedia.org/api/getReviewsByPlaceId?placeId=29451,48
attraction,29452,52.402338,4.87141,Amsterdam,Mercuriushaven,Harbor  Marina,http://tour-pedia.org/api/getReviewsByPlaceId?placeId=29452,29
attraction,29455,52.397517,4.872342,Amsterdam,Etnies OTF,Skate Park,http://tour-pedia.org/api/getReviewsByPlaceId?placeId=29455,19
attraction,29456,52.392737,4.868751,Amsterdam,Bloemendaal,Beach,http://tour-pedia.org/api/getReviewsByPlaceId?placeId=29456,55
attraction,29457,52.396749,4.869737,Amsterdam,Orkater,Theater,http://tour-pedia.org/api/getReviewsByPlaceId?placeId=29457,25
attraction,29458,52.396902,4.869967,Amsterdam,'t Landje,Field,http://tour-pedia.org/api/getReviewsByPlaceId?placeId=29458,20
attraction,29459,52.392596,4.862828,Amsterdam,Kijkende Figuur,Sculpture Garden,http://tour-pedia.org/api/getReviewsByPlaceId?placeId=29459,34
attraction,29461,52.394943,4.868724,Amsterdam,CUE1,General Entertainment,http://tour-pedia.org/api/getReviewsByPlaceId?placeId=29461,30
attraction,29462,52.399315,4.871777,Amsterdam,X Factor Audities,General Entertainment,http://tour-pedia.org/api/getReviewsByPlaceId?placeId=29462,28
attraction,29465,52.392815,4.866758,Amsterdam,Gebroken Cirkel,Sculpture Garden,http://tour-pedia.org/api/getReviewsByPlaceId?placeId=29465,19
attraction,29466,52.399509,4.872023,Amsterdam,United Studio,General Entertainment,http://tour-pedia.org/api/getReviewsByPlaceId?placeId=29466,18
attraction,29467,52.393747,4.868945,Amsterdam,Tuinpark Zonnehoek,Garden,http://tour-pedia.org/api/getReviewsByPlaceId?placeId=29467,18
attraction,29468,52.39266,4.868354,Amsterdam,Wine 3,Wine Bar,http://tour-pedia.org/api/getReviewsByPlaceId?placeId=29468,45
attraction,29469,52.394395,4.870492,Amsterdam,David's Boat,Harbor  Marina,http://tour-pedia.org/api/getReviewsByPlaceId?placeId=29469,24
attraction,29470,52.393129,4.869982,Amsterdam,"3 sculpturen ""Bredius Sportcentrum""",Sculpture Garden,http://tour-pedia.org/api/getReviewsByPlaceId?placeId=29470,47
attraction,29471,52.397697,4.873733,Amsterdam,Igma,Harbor  Marina,http://tour-pedia.org/api/getReviewsByPlaceId?placeId=29471,58
attraction,29472,52.393131,4.870961,Amsterdam,Kindergarten van Opa Stet,Strip Club,http://tour-pedia.org/api/getReviewsByPlaceId?placeId=29472,28
attraction,29475,52.392654,4.872519,Amsterdam,De Beverburcht,Lake,http://tour-pedia.org/api/getReviewsByPlaceId?placeId=29475,36
attraction,29476,52.396834,4.875921,Amsterdam,George's Garage,Nightclub,http://tour-pedia.org/api/getReviewsByPlaceId?placeId=29476,58
attraction,29477,52.396857,4.876036,Amsterdam,Georgie's Nacht Des Wahnsin,Music Venue,http://tour-pedia.org/api/getReviewsByPlaceId?placeId=29477,15
attraction,29478,52.38685,4.868917,Amsterdam,Gashouder,Event Space,http://tour-pedia.org/api/getReviewsByPlaceId?placeId=29478,42
attraction,29481,52.386289,4.873506,Amsterdam,Het Ketelhuis,Indie Movie Theater,http://tour-pedia.org/api/getReviewsByPlaceId?placeId=29481,41
attraction,29483,52.384481,4.875101,Amsterdam,Van Limburg Stirumplein,Plaza,http://tour-pedia.org/api/getReviewsByPlaceId?placeId=29483,56
attraction,29484,52.386012,4.873177,Amsterdam,DutchView Studio,General Entertainment,http://tour-pedia.org/api/getReviewsByPlaceId?placeId=29484,32
attraction,29485,52.385888,4.873885,Amsterdam,MC Theater,Music Venue,http://tour-pedia.org/api/getReviewsByPlaceId?placeId=29485,20
attraction,29486,52.387351,4.865414,Amsterdam,Kinderboerderij Westerpark,Farm,http://tour-pedia.org/api/getReviewsByPlaceId?placeId=29486,54
attraction,29488,52.38619,4.873077,Amsterdam,De Wereld Draait Door,General Entertainment,http://tour-pedia.org/api/getReviewsByPlaceId?placeId=29488,29
attraction,29489,52.384165,4.869978,Amsterdam,Brel,Bar,http://tour-pedia.org/api/getReviewsByPlaceId?placeId=29489,45
attraction,29490,52.386824,4.87013,Amsterdam,Transformatorhuis,Event Space,http://tour-pedia.org/api/getReviewsByPlaceId?placeId=29490,53
attraction,29492,52.386114,4.873807,Amsterdam,Kallenbach Gallery,Art Gallery,http://tour-pedia.org/api/getReviewsByPlaceId?placeId=29492,21
attraction,29494,52.387156,4.870375,Amsterdam,Qult,Nightclub,http://tour-pedia.org/api/getReviewsByPlaceId?placeId=29494,23
attraction,29495,52.385672,4.871002,Amsterdam,Westerpark Kade,Outdoors  Recreation,http://tour-pedia.org/api/getReviewsByPlaceId?placeId=29495,41
attraction,29496,52.385909,4.873308,Amsterdam,Pauw en Witteman,General Entertainment,http://tour-pedia.org/api/getReviewsByPlaceId?placeId=29496,16
