address,category,id,lat,lng,location,name,subCategory,details,reviews
Everywhere,poi,29136,52.342692,4.820444,Amsterdam,Herr Weyers Little Tank,Taxi,http://tour-pedia.org/api/getPlaceDetails?id=29136,http://tour-pedia.org/api/getReviewsByPlaceId?placeId=29136
Jacob Marisstraat,poi,29223,52.35633866,4.852609634,Amsterdam,Jacob Marisstraat,Road,http://tour-pedia.org/api/getPlaceDetails?id=29223,http://tour-pedia.org/api/getReviewsByPlaceId?placeId=29223
Jaagpad,poi,29236,52.33892011,4.846853614,Amsterdam,Nieuwe Meersluis (Schinkelsluis),Boat or Ferry,http://tour-pedia.org/api/getPlaceDetails?id=29236,http://tour-pedia.org/api/getReviewsByPlaceId?placeId=29236
Contactweg 36,poi,29393,52.390966,4.856706,Amsterdam,Super Dure Kantine,Taxi,http://tour-pedia.org/api/getPlaceDetails?id=29393,http://tour-pedia.org/api/getReviewsByPlaceId?placeId=29393
Museumstraat,poi,29640,52.36000798,4.885246754,Amsterdam,Onderdoorgang Rijksmuseum,Road,http://tour-pedia.org/api/getPlaceDetails?id=29640,http://tour-pedia.org/api/getReviewsByPlaceId?placeId=29640
Tasmanstraat,poi,29727,52.39310978,4.886405468,Amsterdam,Houthavenveer naar NDSM-Terrein,Boat or Ferry,http://tour-pedia.org/api/getPlaceDetails?id=29727,http://tour-pedia.org/api/getReviewsByPlaceId?placeId=29727
Westerstraat,poi,29760,52.37862442,4.885450322,Amsterdam,Westerstraat,Road,http://tour-pedia.org/api/getPlaceDetails?id=29760,http://tour-pedia.org/api/getReviewsByPlaceId?placeId=29760
Silodam,poi,29875,52.39005869,4.891319275,Amsterdam,Strekdam Silodam,Road,http://tour-pedia.org/api/getPlaceDetails?id=29875,http://tour-pedia.org/api/getReviewsByPlaceId?placeId=29875
Weteringcircuit,poi,30110,52.35948121,4.891538798,Amsterdam,Tramhalte Weteringcircuit,Light Rail,http://tour-pedia.org/api/getPlaceDetails?id=30110,http://tour-pedia.org/api/getReviewsByPlaceId?placeId=30110
Nieuwendammerdijk,poi,30457,52.39164046,4.93491219,Amsterdam,Nieuwendammerdijk,Road,http://tour-pedia.org/api/getPlaceDetails?id=30457,http://tour-pedia.org/api/getReviewsByPlaceId?placeId=30457
Oosterdok 2,poi,30462,52.372334,4.914209247,Amsterdam,VOC Amsterdam,Boat or Ferry,http://tour-pedia.org/api/getPlaceDetails?id=30462,http://tour-pedia.org/api/getReviewsByPlaceId?placeId=30462
,poi,30804,52.37211456,4.947967529,Amsterdam,Scheepstimmermanstraat,Road,http://tour-pedia.org/api/getPlaceDetails?id=30804,http://tour-pedia.org/api/getReviewsByPlaceId?placeId=30804
Moving Target!,poi,31046,52.35048023,5.004572868,Amsterdam,Tram 26 IJburg - Centraal Station,Light Rail,http://tour-pedia.org/api/getPlaceDetails?id=31046,http://tour-pedia.org/api/getReviewsByPlaceId?placeId=31046
IJburglaan,poi,31047,52.35535147,4.995696684,Amsterdam,Halte Diemerparklaan,Light Rail,http://tour-pedia.org/api/getPlaceDetails?id=31047,http://tour-pedia.org/api/getReviewsByPlaceId?placeId=31047
IJburglaan,poi,31048,52.35775401,4.990539551,Amsterdam,Tramhalte Vennepluimstraat,Bus Station,http://tour-pedia.org/api/getPlaceDetails?id=31048,http://tour-pedia.org/api/getReviewsByPlaceId?placeId=31048
Ruisrietstraat,poi,31049,52.35293327,4.99979712,Amsterdam,Tram- en Bushalte Ruisrietstraat,Light Rail,http://tour-pedia.org/api/getPlaceDetails?id=31049,http://tour-pedia.org/api/getReviewsByPlaceId?placeId=31049
IJburglaan,poi,31050,52.35088654,5.004315376,Amsterdam,Tramhalte IJburg,Light Rail,http://tour-pedia.org/api/getPlaceDetails?id=31050,http://tour-pedia.org/api/getReviewsByPlaceId?placeId=31050
IJburg,poi,31051,52.35639287,4.996571987,Amsterdam,Erich Salomonstraat,Road,http://tour-pedia.org/api/getPlaceDetails?id=31051,http://tour-pedia.org/api/getReviewsByPlaceId?placeId=31051
,poi,31053,52.35687256,4.995892525,Amsterdam,Bushalte Ruiserietstraat,Bus Line,http://tour-pedia.org/api/getPlaceDetails?id=31053,http://tour-pedia.org/api/getReviewsByPlaceId?placeId=31053
,poi,31058,52.357236,4.991208,Amsterdam,Bushalte Vennepluimstraat,Bus Station,http://tour-pedia.org/api/getPlaceDetails?id=31058,http://tour-pedia.org/api/getReviewsByPlaceId?placeId=31058
,poi,31061,52.35788067,4.990385941,Amsterdam,IJburglaan,Road,http://tour-pedia.org/api/getPlaceDetails?id=31061,http://tour-pedia.org/api/getReviewsByPlaceId?placeId=31061
,poi,31062,52.358526,4.994276,Amsterdam,Boot Gijs,Boat or Ferry,http://tour-pedia.org/api/getPlaceDetails?id=31062,http://tour-pedia.org/api/getReviewsByPlaceId?placeId=31062
,poi,31063,52.35470568,4.996873742,Amsterdam,Bushalte Diemerparklaan,Bus Station,http://tour-pedia.org/api/getPlaceDetails?id=31063,http://tour-pedia.org/api/getReviewsByPlaceId?placeId=31063
,poi,31065,52.355519,5.000999,Amsterdam,Lumierestraat,Road,http://tour-pedia.org/api/getPlaceDetails?id=31065,http://tour-pedia.org/api/getReviewsByPlaceId?placeId=31065
,poi,31068,52.35137193,5.005839921,Amsterdam,Bus 66 IJburg - Bijlmer ArenA,Bus Line,http://tour-pedia.org/api/getPlaceDetails?id=31068,http://tour-pedia.org/api/getReviewsByPlaceId?placeId=31068
Krijn Taconiskade 124,poi,31071,52.353238,5.003428,Amsterdam,Veerdienst Amsterdam,Boat or Ferry,http://tour-pedia.org/api/getPlaceDetails?id=31071,http://tour-pedia.org/api/getReviewsByPlaceId?placeId=31071
,poi,31072,52.354615,5.00539,Amsterdam,Sailboa,Boat or Ferry,http://tour-pedia.org/api/getPlaceDetails?id=31072,http://tour-pedia.org/api/getReviewsByPlaceId?placeId=31072
,poi,31073,52.35318,5.003798,Amsterdam,Rainboa,Boat or Ferry,http://tour-pedia.org/api/getPlaceDetails?id=31073,http://tour-pedia.org/api/getReviewsByPlaceId?placeId=31073
,poi,31074,52.35362624,5.005414419,Amsterdam,Bootje IJburg,Boat or Ferry,http://tour-pedia.org/api/getPlaceDetails?id=31074,http://tour-pedia.org/api/getReviewsByPlaceId?placeId=31074
Krijn taconiskade,poi,31076,52.35358244,5.005812993,Amsterdam,Titaan,Boat or Ferry,http://tour-pedia.org/api/getPlaceDetails?id=31076,http://tour-pedia.org/api/getReviewsByPlaceId?placeId=31076
,poi,31080,52.362841,4.983404,Amsterdam,C'est La Vie,Boat or Ferry,http://tour-pedia.org/api/getPlaceDetails?id=31080,http://tour-pedia.org/api/getReviewsByPlaceId?placeId=31080
Machineweg,poi,31086,52.41747162,4.738154411,Amsterdam,S102,Road,http://tour-pedia.org/api/getPlaceDetails?id=31086,http://tour-pedia.org/api/getReviewsByPlaceId?placeId=31086
,poi,31088,52.41549581,4.748868819,Amsterdam,Afrikahaven Amsterdam,Boat or Ferry,http://tour-pedia.org/api/getPlaceDetails?id=31088,http://tour-pedia.org/api/getReviewsByPlaceId?placeId=31088
,poi,31089,52.429052,4.749932002,Amsterdam,Connexxion Water Karla,Boat or Ferry,http://tour-pedia.org/api/getPlaceDetails?id=31089,http://tour-pedia.org/api/getReviewsByPlaceId?placeId=31089
,poi,31091,52.424632,4.762768,Amsterdam,MS Hanzestad,Boat or Ferry,http://tour-pedia.org/api/getPlaceDetails?id=31091,http://tour-pedia.org/api/getReviewsByPlaceId?placeId=31091
cacaohaven,poi,31094,52.41587496,4.762144089,Amsterdam,acs logistics,Boat or Ferry,http://tour-pedia.org/api/getPlaceDetails?id=31094,http://tour-pedia.org/api/getReviewsByPlaceId?placeId=31094
,poi,31095,52.406435,4.756748,Amsterdam,S102,Road,http://tour-pedia.org/api/getPlaceDetails?id=31095,http://tour-pedia.org/api/getReviewsByPlaceId?placeId=31095
,poi,31096,52.40638009,4.757416859,Amsterdam,Start Van De Groene Golf,Road,http://tour-pedia.org/api/getPlaceDetails?id=31096,http://tour-pedia.org/api/getReviewsByPlaceId?placeId=31096
,poi,31097,52.40227509,4.756487846,Amsterdam,Op Me Heftruck,Taxi,http://tour-pedia.org/api/getPlaceDetails?id=31097,http://tour-pedia.org/api/getReviewsByPlaceId?placeId=31097
,poi,31098,52.39810181,4.760986805,Amsterdam,Bushalte Oceaan Groep,Bus Line,http://tour-pedia.org/api/getPlaceDetails?id=31098,http://tour-pedia.org/api/getReviewsByPlaceId?placeId=31098
,poi,31100,52.423978,4.76636,Amsterdam,River Dream,Boat or Ferry,http://tour-pedia.org/api/getPlaceDetails?id=31100,http://tour-pedia.org/api/getReviewsByPlaceId?placeId=31100
Amerikahaven,poi,31102,52.418537,4.768916642,Amsterdam,Marpol 1,Boat or Ferry,http://tour-pedia.org/api/getPlaceDetails?id=31102,http://tour-pedia.org/api/getReviewsByPlaceId?placeId=31102
,poi,31103,52.414576,4.768522,Amsterdam,Boot Helena,Boat or Ferry,http://tour-pedia.org/api/getPlaceDetails?id=31103,http://tour-pedia.org/api/getReviewsByPlaceId?placeId=31103
cacaoweg 1,poi,31104,52.41416046,4.765899181,Amsterdam,Cacaohaven Amsterdam,Boat or Ferry,http://tour-pedia.org/api/getPlaceDetails?id=31104,http://tour-pedia.org/api/getReviewsByPlaceId?placeId=31104
,poi,31105,52.4137,4.767471,Amsterdam,MPS Princess,Boat or Ferry,http://tour-pedia.org/api/getPlaceDetails?id=31105,http://tour-pedia.org/api/getReviewsByPlaceId?placeId=31105
Westpoortweg,poi,31106,52.40609939,4.762204409,Amsterdam,Bushalte Westpoortweg,Bus Line,http://tour-pedia.org/api/getPlaceDetails?id=31106,http://tour-pedia.org/api/getReviewsByPlaceId?placeId=31106
,poi,31107,52.407123,4.770158,Amsterdam,Tanker Willi's,Boat or Ferry,http://tour-pedia.org/api/getPlaceDetails?id=31107,http://tour-pedia.org/api/getReviewsByPlaceId?placeId=31107
Laadbandje,poi,31109,52.40734103,4.778022766,Amsterdam,Graniet Import,Boat or Ferry,http://tour-pedia.org/api/getPlaceDetails?id=31109,http://tour-pedia.org/api/getReviewsByPlaceId?placeId=31109
,poi,31110,52.39965908,4.771978029,Amsterdam,Pendelbus naar Sloterdijk,Bus Line,http://tour-pedia.org/api/getPlaceDetails?id=31110,http://tour-pedia.org/api/getReviewsByPlaceId?placeId=31110
,poi,31111,52.398441,4.770906,Amsterdam,Westpoortweg,Road,http://tour-pedia.org/api/getPlaceDetails?id=31111,http://tour-pedia.org/api/getReviewsByPlaceId?placeId=31111
,poi,31112,52.39851129,4.771445152,Amsterdam,S102,Road,http://tour-pedia.org/api/getPlaceDetails?id=31112,http://tour-pedia.org/api/getReviewsByPlaceId?placeId=31112
"Dortmuiden, Amsterdam",poi,31113,52.39759759,4.778608431,Amsterdam,Bushalte Dortmuiden,Bus Line,http://tour-pedia.org/api/getPlaceDetails?id=31113,http://tour-pedia.org/api/getReviewsByPlaceId?placeId=31113
,poi,31114,52.39401279,4.778255271,Amsterdam,Toerit A5,Road,http://tour-pedia.org/api/getPlaceDetails?id=31114,http://tour-pedia.org/api/getReviewsByPlaceId?placeId=31114
,poi,31115,52.39910126,4.778390884,Amsterdam,aziehavenweg,Train,http://tour-pedia.org/api/getPlaceDetails?id=31115,http://tour-pedia.org/api/getReviewsByPlaceId?placeId=31115
,poi,31116,52.394642,4.778393,Amsterdam,Tanker Nina,Boat or Ferry,http://tour-pedia.org/api/getPlaceDetails?id=31116,http://tour-pedia.org/api/getReviewsByPlaceId?placeId=31116
,poi,31119,52.38651782,4.76827458,Amsterdam,A5 richting Coentunnel,Road,http://tour-pedia.org/api/getPlaceDetails?id=31119,http://tour-pedia.org/api/getReviewsByPlaceId?placeId=31119
,poi,31123,52.38390964,4.76122745,Amsterdam,Rijkeboerweg halfweg,Road,http://tour-pedia.org/api/getPlaceDetails?id=31123,http://tour-pedia.org/api/getReviewsByPlaceId?placeId=31123
,poi,31124,52.38400539,4.769568883,Amsterdam,"File N200 HMP 4,5",Road,http://tour-pedia.org/api/getPlaceDetails?id=31124,http://tour-pedia.org/api/getReviewsByPlaceId?placeId=31124
,poi,31125,52.3842659,4.766372681,Amsterdam,Sprinter naar Haarlem,Train,http://tour-pedia.org/api/getPlaceDetails?id=31125,http://tour-pedia.org/api/getReviewsByPlaceId?placeId=31125
,poi,31130,52.389334,4.777617,Amsterdam,Daveren,Road,http://tour-pedia.org/api/getPlaceDetails?id=31130,http://tour-pedia.org/api/getReviewsByPlaceId?placeId=31130
amsterdam en omstreken,poi,31132,52.38404322,4.776899447,Amsterdam,Keihard Scheuren In Een Spiksplinter Nieuwe BMW,Road,http://tour-pedia.org/api/getPlaceDetails?id=31132,http://tour-pedia.org/api/getReviewsByPlaceId?placeId=31132
,poi,31133,52.38404724,4.777710018,Amsterdam,N200,Road,http://tour-pedia.org/api/getPlaceDetails?id=31133,http://tour-pedia.org/api/getReviewsByPlaceId?placeId=31133
Osdorperweg,poi,31142,52.37161674,4.77596283,Amsterdam,Osdorperweg,Road,http://tour-pedia.org/api/getPlaceDetails?id=31142,http://tour-pedia.org/api/getReviewsByPlaceId?placeId=31142
,poi,31150,52.35377651,4.774471521,Amsterdam,Tramlijn 1,Light Rail,http://tour-pedia.org/api/getPlaceDetails?id=31150,http://tour-pedia.org/api/getReviewsByPlaceId?placeId=31150
,poi,31152,52.35293827,4.7766919,Amsterdam,Tramhalte Pilatus,Light Rail,http://tour-pedia.org/api/getPlaceDetails?id=31152,http://tour-pedia.org/api/getReviewsByPlaceId?placeId=31152
,poi,31153,52.35375,4.774342,Amsterdam,Tramhalte Matterhorn,Light Rail,http://tour-pedia.org/api/getPlaceDetails?id=31153,http://tour-pedia.org/api/getReviewsByPlaceId?placeId=31153
Schotse hooglanden 18,poi,31158,52.353059,4.771556,Amsterdam,Schotse Hooglanden,Road,http://tour-pedia.org/api/getPlaceDetails?id=31158,http://tour-pedia.org/api/getReviewsByPlaceId?placeId=31158
Kiepsteiger,poi,31162,52.409284,4.783095,Amsterdam,Graniet Import,Boat or Ferry,http://tour-pedia.org/api/getPlaceDetails?id=31162,http://tour-pedia.org/api/getReviewsByPlaceId?placeId=31162
,poi,31163,52.3918457,4.780892372,Amsterdam,Abberdaan Bushalte,Bus Station,http://tour-pedia.org/api/getPlaceDetails?id=31163,http://tour-pedia.org/api/getReviewsByPlaceId?placeId=31163
,poi,31164,52.38404424,4.779376348,Amsterdam,Haarlemmerweg,Road,http://tour-pedia.org/api/getPlaceDetails?id=31164,http://tour-pedia.org/api/getReviewsByPlaceId?placeId=31164
,poi,31165,52.38965607,4.784018993,Amsterdam,UC Transports,Road,http://tour-pedia.org/api/getPlaceDetails?id=31165,http://tour-pedia.org/api/getReviewsByPlaceId?placeId=31165
,poi,31166,52.384192,4.783406,Amsterdam,NS Boot Amsterdam-Haarlem,Boat or Ferry,http://tour-pedia.org/api/getPlaceDetails?id=31166,http://tour-pedia.org/api/getReviewsByPlaceId?placeId=31166
,poi,31168,52.38218635,4.791035711,Amsterdam,bushalte jm den uylstraat,Bus Station,http://tour-pedia.org/api/getPlaceDetails?id=31168,http://tour-pedia.org/api/getReviewsByPlaceId?placeId=31168
,poi,31169,52.38243265,4.790947325,Amsterdam,Vliegveld Amsterdam-West,Airport,http://tour-pedia.org/api/getPlaceDetails?id=31169,http://tour-pedia.org/api/getReviewsByPlaceId?placeId=31169
Nisserstraat,poi,31171,52.350532,4.782556,Amsterdam,Tramhalte Nisserstraat,Light Rail,http://tour-pedia.org/api/getPlaceDetails?id=31171,http://tour-pedia.org/api/getReviewsByPlaceId?placeId=31171
,poi,31172,52.360452,4.783946,Amsterdam,West autoverhuur,Rental Car Location,http://tour-pedia.org/api/getPlaceDetails?id=31172,http://tour-pedia.org/api/getReviewsByPlaceId?placeId=31172
Inaristraat,poi,31173,52.35035969,4.783087979,Amsterdam,Tramhalte Inaristraat,Light Rail,http://tour-pedia.org/api/getPlaceDetails?id=31173,http://tour-pedia.org/api/getReviewsByPlaceId?placeId=31173
,poi,31175,52.35540058,4.786239719,Amsterdam,tramhalte osdorp dijkgraafplein,Bus Station,http://tour-pedia.org/api/getPlaceDetails?id=31175,http://tour-pedia.org/api/getReviewsByPlaceId?placeId=31175
,poi,31177,52.3559,4.78435,Amsterdam,E190 Simulator FSC,Plane,http://tour-pedia.org/api/getPlaceDetails?id=31177,http://tour-pedia.org/api/getReviewsByPlaceId?placeId=31177
,poi,31178,52.36215842,4.785042446,Amsterdam,The Brick near the TNT Post,Road,http://tour-pedia.org/api/getPlaceDetails?id=31178,http://tour-pedia.org/api/getReviewsByPlaceId?placeId=31178
,poi,31180,52.351014,4.780674,Amsterdam,The Happy Hydrant,Taxi,http://tour-pedia.org/api/getPlaceDetails?id=31180,http://tour-pedia.org/api/getReviewsByPlaceId?placeId=31180
Ecuplein,poi,31182,52.3499,4.788668,Amsterdam,Tramhalte Ecuplein,Light Rail,http://tour-pedia.org/api/getPlaceDetails?id=31182,http://tour-pedia.org/api/getReviewsByPlaceId?placeId=31182
Somewhere in Europe,poi,31198,52.426047,4.786202,Amsterdam,"Ship ""Somtrans IV""",Boat or Ferry,http://tour-pedia.org/api/getPlaceDetails?id=31198,http://tour-pedia.org/api/getReviewsByPlaceId?placeId=31198
,poi,31206,52.398754,4.790045,Amsterdam,Rookplatform@amsterdam sloterdijk,Train Station,http://tour-pedia.org/api/getPlaceDetails?id=31206,http://tour-pedia.org/api/getReviewsByPlaceId?placeId=31206
,poi,31208,52.392397,4.791901,Amsterdam,"Flying Finish KP 2-4-6 Abberdaan, Rallypro Amsterdam Shortrally",Road,http://tour-pedia.org/api/getPlaceDetails?id=31208,http://tour-pedia.org/api/getReviewsByPlaceId?placeId=31208
,poi,31209,52.390003,4.790648,Amsterdam,"Verzamelplek Officials Annex Start KP1-3-5 Abberdaan, Rallypro Amsterdam Shortrally",Road,http://tour-pedia.org/api/getPlaceDetails?id=31209,http://tour-pedia.org/api/getReviewsByPlaceId?placeId=31209
,poi,31210,52.39050148,4.7917194,Amsterdam,bushalte Jarmuiden,Bus Station,http://tour-pedia.org/api/getPlaceDetails?id=31210,http://tour-pedia.org/api/getReviewsByPlaceId?placeId=31210
Freule Wttewaalpad,poi,31211,52.38013415,4.789421358,Amsterdam,Bushalte 21 Freule Wttewaalpad,Bus Line,http://tour-pedia.org/api/getPlaceDetails?id=31211,http://tour-pedia.org/api/getReviewsByPlaceId?placeId=31211
,poi,31212,52.36116746,4.788639138,Amsterdam,Bushalte Jan Rebelstraat,Bus Line,http://tour-pedia.org/api/getPlaceDetails?id=31212,http://tour-pedia.org/api/getReviewsByPlaceId?placeId=31212
,poi,31213,52.359192,4.788278,Amsterdam,"LangsH2O, Amsterdam",Road,http://tour-pedia.org/api/getPlaceDetails?id=31213,http://tour-pedia.org/api/getReviewsByPlaceId?placeId=31213
Dijkgraafplein,poi,31214,52.35657596,4.791939106,Amsterdam,Tram 17 Osdorp - Amsterdam Centraal,Light Rail,http://tour-pedia.org/api/getPlaceDetails?id=31214,http://tour-pedia.org/api/getReviewsByPlaceId?placeId=31214
Tussenmeer,poi,31215,52.356412,4.79163,Amsterdam,Halte Baden Powellweg,Bus Station,http://tour-pedia.org/api/getPlaceDetails?id=31215,http://tour-pedia.org/api/getReviewsByPlaceId?placeId=31215
,poi,31216,52.356559,4.791534,Amsterdam,Tramhalte Baden Powellweg,Light Rail,http://tour-pedia.org/api/getPlaceDetails?id=31216,http://tour-pedia.org/api/getReviewsByPlaceId?placeId=31216
,poi,31217,52.36223922,4.794048661,Amsterdam,Stef En Karen,Boat or Ferry,http://tour-pedia.org/api/getPlaceDetails?id=31217,http://tour-pedia.org/api/getReviewsByPlaceId?placeId=31217
,poi,31218,52.35842026,4.795252305,Amsterdam,Tussenmeer,Road,http://tour-pedia.org/api/getPlaceDetails?id=31218,http://tour-pedia.org/api/getReviewsByPlaceId?placeId=31218
Pieter Calandlaan,poi,31219,52.35093897,4.794384241,Amsterdam,Bushalte Baden Powellweg,Bus Station,http://tour-pedia.org/api/getPlaceDetails?id=31219,http://tour-pedia.org/api/getReviewsByPlaceId?placeId=31219
,poi,31224,52.4038801,4.7992644,Amsterdam,Intercity Sloterdijk - Hoorn,Train,http://tour-pedia.org/api/getPlaceDetails?id=31224,http://tour-pedia.org/api/getReviewsByPlaceId?placeId=31224
,poi,31225,52.39910262,4.794267342,Amsterdam,"Emplacementje Aziëhaven, Houtrakpolder (Hrp)",Train,http://tour-pedia.org/api/getPlaceDetails?id=31225,http://tour-pedia.org/api/getReviewsByPlaceId?placeId=31225
,poi,31226,52.402312,4.800449,Amsterdam,HUSA(acts) HQ-A'dam,Train,http://tour-pedia.org/api/getPlaceDetails?id=31226,http://tour-pedia.org/api/getReviewsByPlaceId?placeId=31226
,poi,31228,52.39755283,4.795114421,Amsterdam,Bushalte Westpoortweg,Bus Line,http://tour-pedia.org/api/getPlaceDetails?id=31228,http://tour-pedia.org/api/getReviewsByPlaceId?placeId=31228
,poi,31230,52.395999,4.794798,Amsterdam,Halte Bornhout,Bus Line,http://tour-pedia.org/api/getPlaceDetails?id=31230,http://tour-pedia.org/api/getReviewsByPlaceId?placeId=31230
Noordzeeweg 50,poi,31231,52.396213,4.80065,Amsterdam,Bakerstreet Benelux :: Noordzeeweg 50,Road,http://tour-pedia.org/api/getPlaceDetails?id=31231,http://tour-pedia.org/api/getReviewsByPlaceId?placeId=31231
,poi,31232,52.39915132,4.803295942,Amsterdam,Trein Sloterdijk - Den Helder Zuid,Train,http://tour-pedia.org/api/getPlaceDetails?id=31232,http://tour-pedia.org/api/getReviewsByPlaceId?placeId=31232
Sprinter Zandvoort Aan Zee naar Amsterdam CS,poi,31233,52.38911438,4.803716183,Amsterdam,Halfweg,Train,http://tour-pedia.org/api/getPlaceDetails?id=31233,http://tour-pedia.org/api/getReviewsByPlaceId?placeId=31233
Sierenborch 17,poi,31234,52.39074521,4.801990542,Amsterdam,Alphabet Rental Services Amsterdam,Rental Car Location,http://tour-pedia.org/api/getPlaceDetails?id=31234,http://tour-pedia.org/api/getReviewsByPlaceId?placeId=31234
Overal,poi,31235,52.383675,4.797124,Amsterdam,R2D2,Taxi,http://tour-pedia.org/api/getPlaceDetails?id=31235,http://tour-pedia.org/api/getReviewsByPlaceId?placeId=31235
Hornweg 54,poi,31236,52.3896553,4.80252042,Amsterdam,T.I.P trailer Rental,Rental Car Location,http://tour-pedia.org/api/getPlaceDetails?id=31236,http://tour-pedia.org/api/getReviewsByPlaceId?placeId=31236
Moving Target!,poi,31238,52.37606421,4.797656536,Amsterdam,Bus 21 Geuzenveld - Centraal Station,Bus Line,http://tour-pedia.org/api/getPlaceDetails?id=31238,http://tour-pedia.org/api/getReviewsByPlaceId?placeId=31238
Moving Target!,poi,31239,52.37970578,4.801612104,Amsterdam,Bus 61 Sloterdijk - Slotervaart,Bus Line,http://tour-pedia.org/api/getPlaceDetails?id=31239,http://tour-pedia.org/api/getReviewsByPlaceId?placeId=31239
,poi,31240,52.38387202,4.803165075,Amsterdam,Haarlemmerweg Halfweg-Amsterdam,Road,http://tour-pedia.org/api/getPlaceDetails?id=31240,http://tour-pedia.org/api/getReviewsByPlaceId?placeId=31240
Aalbersestraat,poi,31241,52.3824313,4.797922241,Amsterdam,Bushalte Aalbersestraat,Bus Station,http://tour-pedia.org/api/getPlaceDetails?id=31241,http://tour-pedia.org/api/getReviewsByPlaceId?placeId=31241
,poi,31243,52.376065,4.797573,Amsterdam,Bushalte De Sav. Lohmanstraat,Bus Station,http://tour-pedia.org/api/getPlaceDetails?id=31243,http://tour-pedia.org/api/getReviewsByPlaceId?placeId=31243
,poi,31245,52.37511951,4.801209149,Amsterdam,Bushalte Troelstralaan,Bus Station,http://tour-pedia.org/api/getPlaceDetails?id=31245,http://tour-pedia.org/api/getReviewsByPlaceId?placeId=31245
,poi,31246,52.37616433,4.8022066,Amsterdam,"Dylan, The Lancia Delta",Road,http://tour-pedia.org/api/getPlaceDetails?id=31246,http://tour-pedia.org/api/getReviewsByPlaceId?placeId=31246
,poi,31252,52.36672211,4.800599575,Amsterdam,Bus 268,Bus Line,http://tour-pedia.org/api/getPlaceDetails?id=31252,http://tour-pedia.org/api/getReviewsByPlaceId?placeId=31252
Nieuwelaan,poi,31254,52.36235204,4.800458615,Amsterdam,Nieuwelaan,Road,http://tour-pedia.org/api/getPlaceDetails?id=31254,http://tour-pedia.org/api/getReviewsByPlaceId?placeId=31254
,poi,31255,52.35800805,4.798766758,Amsterdam,Tramhalte Hoekenes,Light Rail,http://tour-pedia.org/api/getPlaceDetails?id=31255,http://tour-pedia.org/api/getReviewsByPlaceId?placeId=31255
,poi,31257,52.356728,4.798074,Amsterdam,Bushalte Wolbrantskerkweg,Bus Station,http://tour-pedia.org/api/getPlaceDetails?id=31257,http://tour-pedia.org/api/getReviewsByPlaceId?placeId=31257
,poi,31258,52.35120305,4.795766874,Amsterdam,Bus 192 richting Schiphol Zuid,Bus Line,http://tour-pedia.org/api/getPlaceDetails?id=31258,http://tour-pedia.org/api/getReviewsByPlaceId?placeId=31258
,poi,31259,52.359097,4.803191343,Amsterdam,Tramhalte Osdorpplein,Light Rail,http://tour-pedia.org/api/getPlaceDetails?id=31259,http://tour-pedia.org/api/getReviewsByPlaceId?placeId=31259
,poi,31260,52.35687114,4.796273198,Amsterdam,Kruising (Wolbrantskerkweg - Tussenmeer),Road,http://tour-pedia.org/api/getPlaceDetails?id=31260,http://tour-pedia.org/api/getReviewsByPlaceId?placeId=31260
,poi,31264,52.3555,4.796847,Amsterdam,Ekingensrraat Amsterdam,Road,http://tour-pedia.org/api/getPlaceDetails?id=31264,http://tour-pedia.org/api/getReviewsByPlaceId?placeId=31264
M Hanenbergstraat 17,poi,31266,52.359396,4.802319,Amsterdam,Surinam Airways HQ,Travel Lounge,http://tour-pedia.org/api/getPlaceDetails?id=31266,http://tour-pedia.org/api/getReviewsByPlaceId?placeId=31266
,poi,31268,52.35976028,4.798015118,Amsterdam,the Love Taxi aka Naughty Racer,Taxi,http://tour-pedia.org/api/getPlaceDetails?id=31268,http://tour-pedia.org/api/getReviewsByPlaceId?placeId=31268
,poi,31270,52.35851663,4.799667889,Amsterdam,Bushalte Hoekenes,Bus Line,http://tour-pedia.org/api/getPlaceDetails?id=31270,http://tour-pedia.org/api/getReviewsByPlaceId?placeId=31270
,poi,31273,52.35857762,4.802450667,Amsterdam,Nachtbus 353 naar Centraal Station,Bus Line,http://tour-pedia.org/api/getPlaceDetails?id=31273,http://tour-pedia.org/api/getReviewsByPlaceId?placeId=31273
,poi,31274,52.352541,4.802444,Amsterdam,Tramhalte Hoekenes,Light Rail,http://tour-pedia.org/api/getPlaceDetails?id=31274,http://tour-pedia.org/api/getReviewsByPlaceId?placeId=31274
Jan van Zutphenstraat,poi,31276,52.34932993,4.800574252,Amsterdam,Bushalte Jan van Zutphenplantsoen,Bus Station,http://tour-pedia.org/api/getPlaceDetails?id=31276,http://tour-pedia.org/api/getReviewsByPlaceId?placeId=31276
Kortrijk,poi,31279,52.3446618,4.801022498,Amsterdam,Bushalte Kortrijk,Bus Line,http://tour-pedia.org/api/getPlaceDetails?id=31279,http://tour-pedia.org/api/getReviewsByPlaceId?placeId=31279
,poi,31280,52.343239,4.797512,Amsterdam,Bushalte Osdorperweg,Bus Line,http://tour-pedia.org/api/getPlaceDetails?id=31280,http://tour-pedia.org/api/getReviewsByPlaceId?placeId=31280
,poi,31281,52.341862,4.793646,Amsterdam,Bushalte Langsom,Bus Station,http://tour-pedia.org/api/getPlaceDetails?id=31281,http://tour-pedia.org/api/getReviewsByPlaceId?placeId=31281
,poi,31285,52.42296571,4.807452185,Amsterdam,Passing Westhaven,Boat or Ferry,http://tour-pedia.org/api/getPlaceDetails?id=31285,http://tour-pedia.org/api/getReviewsByPlaceId?placeId=31285
,poi,31286,52.422704,4.811071,Amsterdam,Warmer Sloep,Boat or Ferry,http://tour-pedia.org/api/getPlaceDetails?id=31286,http://tour-pedia.org/api/getReviewsByPlaceId?placeId=31286
,poi,31290,52.4097,4.803599697,Amsterdam,Houtmankade Zaandam,Road,http://tour-pedia.org/api/getPlaceDetails?id=31290,http://tour-pedia.org/api/getReviewsByPlaceId?placeId=31290
,poi,31291,52.40780258,4.802170753,Amsterdam,Lijn 64,Bus Line,http://tour-pedia.org/api/getPlaceDetails?id=31291,http://tour-pedia.org/api/getReviewsByPlaceId?placeId=31291
,poi,31293,52.40028536,4.804226627,Amsterdam,Intercity Amsterdam Sloterdijk - Alkmaar,Train,http://tour-pedia.org/api/getPlaceDetails?id=31293,http://tour-pedia.org/api/getReviewsByPlaceId?placeId=31293
,poi,31294,52.399639,4.804436,Amsterdam,Trein A'dam Sloterdijk - Enkhuizen,Light Rail,http://tour-pedia.org/api/getPlaceDetails?id=31294,http://tour-pedia.org/api/getReviewsByPlaceId?placeId=31294
Noordzeeweg,poi,31295,52.399405,4.80473951,Amsterdam,Trein Naar Zaandam,Train,http://tour-pedia.org/api/getPlaceDetails?id=31295,http://tour-pedia.org/api/getReviewsByPlaceId?placeId=31295
,poi,31296,52.394773,4.80875,Amsterdam,Bushalte Hornhaven,Bus Station,http://tour-pedia.org/api/getPlaceDetails?id=31296,http://tour-pedia.org/api/getReviewsByPlaceId?placeId=31296
,poi,31298,52.393333,4.808186,Amsterdam,Intercity Sloterdijk - Hoorn,Train,http://tour-pedia.org/api/getPlaceDetails?id=31298,http://tour-pedia.org/api/getReviewsByPlaceId?placeId=31298
,poi,31299,52.39179303,4.811180034,Amsterdam,Intercity Sloterdijk - Hoorn,Train,http://tour-pedia.org/api/getPlaceDetails?id=31299,http://tour-pedia.org/api/getReviewsByPlaceId?placeId=31299
,poi,31300,52.37695,4.806191325,Amsterdam,Tramhalte Colijnstraat,Light Rail,http://tour-pedia.org/api/getPlaceDetails?id=31300,http://tour-pedia.org/api/getReviewsByPlaceId?placeId=31300
,poi,31301,52.37711802,4.804500862,Amsterdam,Eind van de Burgemeester Roellstraat,Road,http://tour-pedia.org/api/getPlaceDetails?id=31301,http://tour-pedia.org/api/getReviewsByPlaceId?placeId=31301
,poi,31302,52.3773596,4.804184959,Amsterdam,Dirk Sonoystraat,Road,http://tour-pedia.org/api/getPlaceDetails?id=31302,http://tour-pedia.org/api/getReviewsByPlaceId?placeId=31302
,poi,31303,52.38241028,4.805687515,Amsterdam,Bushalte Dr.H.Colijnstraat,Bus Station,http://tour-pedia.org/api/getPlaceDetails?id=31303,http://tour-pedia.org/api/getReviewsByPlaceId?placeId=31303
,poi,31304,52.38438493,4.80809082,Amsterdam,S104,Road,http://tour-pedia.org/api/getPlaceDetails?id=31304,http://tour-pedia.org/api/getReviewsByPlaceId?placeId=31304
,poi,31305,52.37760991,4.80665803,Amsterdam,Dr. H. Colijnstraat,Road,http://tour-pedia.org/api/getPlaceDetails?id=31305,http://tour-pedia.org/api/getReviewsByPlaceId?placeId=31305
De Savornin Lohmanstraat,poi,31306,52.37490082,4.806663036,Amsterdam,Bushalte Dr. H. Colijnstraat,Bus Station,http://tour-pedia.org/api/getPlaceDetails?id=31306,http://tour-pedia.org/api/getReviewsByPlaceId?placeId=31306
,poi,31307,52.373633,4.811967,Amsterdam,My Car,Road,http://tour-pedia.org/api/getPlaceDetails?id=31307,http://tour-pedia.org/api/getReviewsByPlaceId?placeId=31307
,poi,31308,52.36503284,4.804221794,Amsterdam,Bushalte Oeverpad,Bus Station,http://tour-pedia.org/api/getPlaceDetails?id=31308,http://tour-pedia.org/api/getReviewsByPlaceId?placeId=31308
,poi,31309,52.36224558,4.806193683,Amsterdam,Bushalte: Vrijzicht,Bus Station,http://tour-pedia.org/api/getPlaceDetails?id=31309,http://tour-pedia.org/api/getReviewsByPlaceId?placeId=31309
,poi,31310,52.364668,4.802758,Amsterdam,My Car Citroen,Road,http://tour-pedia.org/api/getPlaceDetails?id=31310,http://tour-pedia.org/api/getReviewsByPlaceId?placeId=31310
,poi,31311,52.36096407,4.806795009,Amsterdam,lijn 61,Bus Line,http://tour-pedia.org/api/getPlaceDetails?id=31311,http://tour-pedia.org/api/getReviewsByPlaceId?placeId=31311
Moving Target!,poi,31314,52.35989862,4.80629395,Amsterdam,Bus 63 Osdorp de Aker - Lelylaan,Bus Line,http://tour-pedia.org/api/getPlaceDetails?id=31314,http://tour-pedia.org/api/getReviewsByPlaceId?placeId=31314
Tram 17,poi,31317,52.35981817,4.80726132,Amsterdam,Tramhalte Ruimzicht,Light Rail,http://tour-pedia.org/api/getPlaceDetails?id=31317,http://tour-pedia.org/api/getReviewsByPlaceId?placeId=31317
,poi,31321,52.35973023,4.807527328,Amsterdam,Bushalte Ruimzicht,Bus Station,http://tour-pedia.org/api/getPlaceDetails?id=31321,http://tour-pedia.org/api/getReviewsByPlaceId?placeId=31321
Moving Target!,poi,31322,52.35226637,4.808812531,Amsterdam,Bus 61 Slotervaart - Sloterdijk,Bus Line,http://tour-pedia.org/api/getPlaceDetails?id=31322,http://tour-pedia.org/api/getReviewsByPlaceId?placeId=31322
Moving Target!,poi,31323,52.35955096,4.80746859,Amsterdam,Bus 19 Sloterdijk - Lelylaan,Bus Line,http://tour-pedia.org/api/getPlaceDetails?id=31323,http://tour-pedia.org/api/getReviewsByPlaceId?placeId=31323
,poi,31325,52.356879,4.809211,Amsterdam,Bushalte Maaseikpad,Bus Line,http://tour-pedia.org/api/getPlaceDetails?id=31325,http://tour-pedia.org/api/getReviewsByPlaceId?placeId=31325
Moving Target!,poi,31326,52.344843,4.804069529,Amsterdam,Tram 2 Nieuw Sloten - Amsterdam Centraal,Light Rail,http://tour-pedia.org/api/getPlaceDetails?id=31326,http://tour-pedia.org/api/getReviewsByPlaceId?placeId=31326
,poi,31327,52.345708,4.804194,Amsterdam,Tramhalte Oudenaardeplantsoen,Light Rail,http://tour-pedia.org/api/getPlaceDetails?id=31327,http://tour-pedia.org/api/getReviewsByPlaceId?placeId=31327
,poi,31328,52.34520645,4.802069445,Amsterdam,Halte Brusselsingel,Bus Line,http://tour-pedia.org/api/getPlaceDetails?id=31328,http://tour-pedia.org/api/getReviewsByPlaceId?placeId=31328
,poi,31329,52.353922,4.810868,Amsterdam,ACM Verhuur,Rental Car Location,http://tour-pedia.org/api/getPlaceDetails?id=31329,http://tour-pedia.org/api/getReviewsByPlaceId?placeId=31329
,poi,31330,52.34638999,4.810613572,Amsterdam,Tramhalte Kasterleepark,Light Rail,http://tour-pedia.org/api/getPlaceDetails?id=31330,http://tour-pedia.org/api/getReviewsByPlaceId?placeId=31330
Laan van Vlaanderen,poi,31331,52.347168,4.805794,Amsterdam,Bushalte Westmallepad,Bus Line,http://tour-pedia.org/api/getPlaceDetails?id=31331,http://tour-pedia.org/api/getReviewsByPlaceId?placeId=31331
Badhoevelaan,poi,31332,52.3433,4.798229,Amsterdam,Badhoevelaan badhoevedorp,Bus Line,http://tour-pedia.org/api/getPlaceDetails?id=31332,http://tour-pedia.org/api/getReviewsByPlaceId?placeId=31332
,poi,31333,52.34663588,4.807698241,Amsterdam,Berlaarstraat,Road,http://tour-pedia.org/api/getPlaceDetails?id=31333,http://tour-pedia.org/api/getReviewsByPlaceId?placeId=31333
,poi,31343,52.34265072,4.80523576,Amsterdam,Gate F4,Airport Gate,http://tour-pedia.org/api/getPlaceDetails?id=31343,http://tour-pedia.org/api/getReviewsByPlaceId?placeId=31343
,poi,31352,52.41423646,4.813066618,Amsterdam,Westhaven Garage 2,Boat or Ferry,http://tour-pedia.org/api/getPlaceDetails?id=31352,http://tour-pedia.org/api/getReviewsByPlaceId?placeId=31352
,poi,31354,52.40501046,4.816434,Amsterdam,AMT,Boat or Ferry,http://tour-pedia.org/api/getPlaceDetails?id=31354,http://tour-pedia.org/api/getReviewsByPlaceId?placeId=31354
,poi,31355,52.39150823,4.81906941,Amsterdam,Seineweg,Road,http://tour-pedia.org/api/getPlaceDetails?id=31355,http://tour-pedia.org/api/getReviewsByPlaceId?placeId=31355
,poi,31357,52.40080451,4.819337101,Amsterdam,Tanker Naduah,Boat or Ferry,http://tour-pedia.org/api/getPlaceDetails?id=31357,http://tour-pedia.org/api/getReviewsByPlaceId?placeId=31357
,poi,31359,52.3886978,4.813506674,Amsterdam,Sprinter Amsterdam Sloterdijk Haarlem,Train,http://tour-pedia.org/api/getPlaceDetails?id=31359,http://tour-pedia.org/api/getReviewsByPlaceId?placeId=31359
,poi,31360,52.38960726,4.814074844,Amsterdam,Intercity Zandvoort aan Zee - Amsterdam Centraal,Train,http://tour-pedia.org/api/getPlaceDetails?id=31360,http://tour-pedia.org/api/getReviewsByPlaceId?placeId=31360
,poi,31362,52.39086151,4.818126202,Amsterdam,zaandam bus,Bus Station,http://tour-pedia.org/api/getPlaceDetails?id=31362,http://tour-pedia.org/api/getReviewsByPlaceId?placeId=31362
,poi,31363,52.376494,4.811703,Amsterdam,Burgemeester Van leewenlaan,Light Rail,http://tour-pedia.org/api/getPlaceDetails?id=31363,http://tour-pedia.org/api/getReviewsByPlaceId?placeId=31363
,poi,31365,52.38322609,4.814960738,Amsterdam,Bus 21 richting Centrum,Bus Line,http://tour-pedia.org/api/getPlaceDetails?id=31365,http://tour-pedia.org/api/getReviewsByPlaceId?placeId=31365
,poi,31366,52.37659473,4.810080528,Amsterdam,Burgermeester Roellstraat,Road,http://tour-pedia.org/api/getPlaceDetails?id=31366,http://tour-pedia.org/api/getReviewsByPlaceId?placeId=31366
Moving Target!,poi,31368,52.37283509,4.818964005,Amsterdam,Tram 7 Sloterpark - Flevopark,Light Rail,http://tour-pedia.org/api/getPlaceDetails?id=31368,http://tour-pedia.org/api/getReviewsByPlaceId?placeId=31368
Moving Target!,poi,31369,52.37291369,4.819049835,Amsterdam,Tram 14 Sloterpark - Flevopark,Light Rail,http://tour-pedia.org/api/getPlaceDetails?id=31369,http://tour-pedia.org/api/getReviewsByPlaceId?placeId=31369
,poi,31370,52.375549,4.819632,Amsterdam,Tramhalte Slotermeerlaan,Light Rail,http://tour-pedia.org/api/getPlaceDetails?id=31370,http://tour-pedia.org/api/getReviewsByPlaceId?placeId=31370
,poi,31372,52.37303,4.818865,Amsterdam,Tramhalte Lijn 7/14 Sloterpark,Light Rail,http://tour-pedia.org/api/getPlaceDetails?id=31372,http://tour-pedia.org/api/getReviewsByPlaceId?placeId=31372
,poi,31374,52.35735337,4.815042918,Amsterdam,Bushalte Piet Wiedijkstraat,Bus Station,http://tour-pedia.org/api/getPlaceDetails?id=31374,http://tour-pedia.org/api/getReviewsByPlaceId?placeId=31374
,poi,31375,52.357321,4.814631,Amsterdam,Tramhalte Piet Wiedijkstraat,Subway,http://tour-pedia.org/api/getPlaceDetails?id=31375,http://tour-pedia.org/api/getReviewsByPlaceId?placeId=31375
,poi,31376,52.36158454,4.816028523,Amsterdam,Bushalte Maaseikpad,Bus Station,http://tour-pedia.org/api/getPlaceDetails?id=31376,http://tour-pedia.org/api/getReviewsByPlaceId?placeId=31376
,poi,31377,52.3565858,4.814314042,Amsterdam,F. thomasstraat,Road,http://tour-pedia.org/api/getPlaceDetails?id=31377,http://tour-pedia.org/api/getReviewsByPlaceId?placeId=31377
Osdorp,poi,31378,52.3541323,4.8138115,Amsterdam,Tram Halte Meer en Vaart,Light Rail,http://tour-pedia.org/api/getPlaceDetails?id=31378,http://tour-pedia.org/api/getReviewsByPlaceId?placeId=31378
Wannepad,poi,31380,52.3435912,4.816611106,Amsterdam,Wannepad,Road,http://tour-pedia.org/api/getPlaceDetails?id=31380,http://tour-pedia.org/api/getReviewsByPlaceId?placeId=31380
,poi,31383,52.3434288,4.812470366,Amsterdam,Sint Truidenstraat,Road,http://tour-pedia.org/api/getPlaceDetails?id=31383,http://tour-pedia.org/api/getReviewsByPlaceId?placeId=31383
,poi,31384,52.345109,4.812582,Amsterdam,Bushalte Hageland,Bus Line,http://tour-pedia.org/api/getPlaceDetails?id=31384,http://tour-pedia.org/api/getReviewsByPlaceId?placeId=31384
Laan van Vlaanderen,poi,31385,52.34590896,4.81600011,Amsterdam,Bushalte Antwerpenbaan,Bus Station,http://tour-pedia.org/api/getPlaceDetails?id=31385,http://tour-pedia.org/api/getReviewsByPlaceId?placeId=31385
Plesmanlaan,poi,31387,52.350116,4.815657,Amsterdam,Plesmanlaan,Road,http://tour-pedia.org/api/getPlaceDetails?id=31387,http://tour-pedia.org/api/getReviewsByPlaceId?placeId=31387
Laan van Vlaanderen,poi,31388,52.34585842,4.812682487,Amsterdam,Halte antwerpenbaan bus 195/95,Bus Station,http://tour-pedia.org/api/getPlaceDetails?id=31388,http://tour-pedia.org/api/getReviewsByPlaceId?placeId=31388
antwerpenbaan,poi,31389,52.34614644,4.81607842,Amsterdam,Halte Antwerpenbaan,Bus Line,http://tour-pedia.org/api/getPlaceDetails?id=31389,http://tour-pedia.org/api/getReviewsByPlaceId?placeId=31389
Rijksweg A4,poi,31390,52.33806617,4.813427925,Amsterdam,"A4 (1, Sloten)",Road,http://tour-pedia.org/api/getPlaceDetails?id=31390,http://tour-pedia.org/api/getReviewsByPlaceId?placeId=31390
,poi,31391,52.3429645,4.813035501,Amsterdam,Bastenakenstraat,Road,http://tour-pedia.org/api/getPlaceDetails?id=31391,http://tour-pedia.org/api/getReviewsByPlaceId?placeId=31391
,poi,31392,52.3429788,4.813602753,Amsterdam,Luiksingel,Road,http://tour-pedia.org/api/getPlaceDetails?id=31392,http://tour-pedia.org/api/getReviewsByPlaceId?placeId=31392
,poi,31394,52.34293535,4.812360013,Amsterdam,Anderlechtlaan,Road,http://tour-pedia.org/api/getPlaceDetails?id=31394,http://tour-pedia.org/api/getReviewsByPlaceId?placeId=31394
,poi,31396,52.33856738,4.816372437,Amsterdam,Trein Amsterdam-rotterdam,Train,http://tour-pedia.org/api/getPlaceDetails?id=31396,http://tour-pedia.org/api/getReviewsByPlaceId?placeId=31396
,poi,31398,52.34299783,4.811704123,Amsterdam,Laan Van Vlaanderen,Road,http://tour-pedia.org/api/getPlaceDetails?id=31398,http://tour-pedia.org/api/getReviewsByPlaceId?placeId=31398
,poi,31399,52.33417268,4.804331704,Amsterdam,A10 Afslag S107,Road,http://tour-pedia.org/api/getPlaceDetails?id=31399,http://tour-pedia.org/api/getReviewsByPlaceId?placeId=31399
,poi,31400,52.33832408,4.815825355,Amsterdam,Trein Naar Purmerend,Train,http://tour-pedia.org/api/getPlaceDetails?id=31400,http://tour-pedia.org/api/getReviewsByPlaceId?placeId=31400
Sloterweg,poi,31401,52.34185489,4.816213924,Amsterdam,Bushalte Sloterweg 865,Bus Line,http://tour-pedia.org/api/getPlaceDetails?id=31401,http://tour-pedia.org/api/getReviewsByPlaceId?placeId=31401
,poi,31402,52.34175209,4.813368161,Amsterdam,Sloterweg,Road,http://tour-pedia.org/api/getPlaceDetails?id=31402,http://tour-pedia.org/api/getReviewsByPlaceId?placeId=31402
,poi,31403,52.33330105,4.806443709,Amsterdam,Lvnl Riekerpolder,Airport Terminal,http://tour-pedia.org/api/getPlaceDetails?id=31403,http://tour-pedia.org/api/getReviewsByPlaceId?placeId=31403
,poi,31404,52.33852307,4.816258881,Amsterdam,A10 Afslag Slotervaart 1 s 107,Road,http://tour-pedia.org/api/getPlaceDetails?id=31404,http://tour-pedia.org/api/getReviewsByPlaceId?placeId=31404
Anton Schleperspad 10,poi,31416,52.334523,4.81469555,Amsterdam,Veerpont Nieuwe Meer,Boat or Ferry,http://tour-pedia.org/api/getPlaceDetails?id=31416,http://tour-pedia.org/api/getReviewsByPlaceId?placeId=31416
Moving Target!,poi,31418,52.33786212,4.813997927,Amsterdam,Intercity Leiden Centraal - Schiphol,Train,http://tour-pedia.org/api/getPlaceDetails?id=31418,http://tour-pedia.org/api/getReviewsByPlaceId?placeId=31418
,poi,31421,52.32968847,4.821430506,Amsterdam,Veerpont Nieuwe Meer,Boat or Ferry,http://tour-pedia.org/api/getPlaceDetails?id=31421,http://tour-pedia.org/api/getReviewsByPlaceId?placeId=31421
,poi,31423,52.34282444,4.811965916,Amsterdam,Heverleestraat,Road,http://tour-pedia.org/api/getPlaceDetails?id=31423,http://tour-pedia.org/api/getReviewsByPlaceId?placeId=31423
,poi,31424,52.34321675,4.813734211,Amsterdam,Tienenpad,Road,http://tour-pedia.org/api/getPlaceDetails?id=31424,http://tour-pedia.org/api/getReviewsByPlaceId?placeId=31424
,poi,31425,52.329267,4.821171,Amsterdam,Helena Pontje,Boat or Ferry,http://tour-pedia.org/api/getPlaceDetails?id=31425,http://tour-pedia.org/api/getReviewsByPlaceId?placeId=31425
1042AM Amsterdam,poi,31426,52.41870025,4.826829228,Amsterdam,Pont Hemweg,Boat or Ferry,http://tour-pedia.org/api/getPlaceDetails?id=31426,http://tour-pedia.org/api/getReviewsByPlaceId?placeId=31426
Hemkade Zaandam,poi,31428,52.41823343,4.826932875,Amsterdam,Rijkspont 5 Zaandam,Boat or Ferry,http://tour-pedia.org/api/getPlaceDetails?id=31428,http://tour-pedia.org/api/getReviewsByPlaceId?placeId=31428
Zaandam,poi,31429,52.42067646,4.826731315,Amsterdam,Noordzee Kanaal,Boat or Ferry,http://tour-pedia.org/api/getPlaceDetails?id=31429,http://tour-pedia.org/api/getReviewsByPlaceId?placeId=31429
,poi,31440,52.41933387,4.827178115,Amsterdam,hempond,Boat or Ferry,http://tour-pedia.org/api/getPlaceDetails?id=31440,http://tour-pedia.org/api/getReviewsByPlaceId?placeId=31440
Hemweg 177,poi,31442,52.41796553,4.8262918,Amsterdam,Bushalte Hempontplein,Bus Line,http://tour-pedia.org/api/getPlaceDetails?id=31442,http://tour-pedia.org/api/getReviewsByPlaceId?placeId=31442
Hemkade,poi,31443,52.41891512,4.82660042,Amsterdam,Rijkspont 6,Boat or Ferry,http://tour-pedia.org/api/getPlaceDetails?id=31443,http://tour-pedia.org/api/getReviewsByPlaceId?placeId=31443
Hemkade Zaandam,poi,31444,52.4182838,4.826733267,Amsterdam,Rijkspont 7 Zaandam,Boat or Ferry,http://tour-pedia.org/api/getPlaceDetails?id=31444,http://tour-pedia.org/api/getReviewsByPlaceId?placeId=31444
,poi,31445,52.41793871,4.827037454,Amsterdam,Fietspad Nieuwe Hemweg,Road,http://tour-pedia.org/api/getPlaceDetails?id=31445,http://tour-pedia.org/api/getReviewsByPlaceId?placeId=31445
,poi,31447,52.40582255,4.826946259,Amsterdam,Sonthaven,Boat or Ferry,http://tour-pedia.org/api/getPlaceDetails?id=31447,http://tour-pedia.org/api/getReviewsByPlaceId?placeId=31447
,poi,31448,52.39323151,4.825662525,Amsterdam,Basisweg,Road,http://tour-pedia.org/api/getPlaceDetails?id=31448,http://tour-pedia.org/api/getReviewsByPlaceId?placeId=31448
,poi,31449,52.39124298,4.82422781,Amsterdam,Ouke Baas Autoverhuur,Rental Car Location,http://tour-pedia.org/api/getPlaceDetails?id=31449,http://tour-pedia.org/api/getReviewsByPlaceId?placeId=31449
Slotermeerlaan,poi,31451,52.38125781,4.821324348,Amsterdam,Tram- en Bushalte Plein '40-'45,Bus Station,http://tour-pedia.org/api/getPlaceDetails?id=31451,http://tour-pedia.org/api/getReviewsByPlaceId?placeId=31451
,poi,31452,52.39043,4.81923,Amsterdam,Lijn 231 naar Sloterdijk,Bus Line,http://tour-pedia.org/api/getPlaceDetails?id=31452,http://tour-pedia.org/api/getReviewsByPlaceId?placeId=31452
,poi,31453,52.38441217,4.818680535,Amsterdam,NS-bus: Amsterdam Sloterdijk - Haarlem,Bus Line,http://tour-pedia.org/api/getPlaceDetails?id=31453,http://tour-pedia.org/api/getReviewsByPlaceId?placeId=31453
,poi,31454,52.39043,4.81923,Amsterdam,Bushalte oderweg,Bus Station,http://tour-pedia.org/api/getPlaceDetails?id=31454,http://tour-pedia.org/api/getReviewsByPlaceId?placeId=31454
,poi,31455,52.39043,4.81923,Amsterdam,Bushalte oderweg,Bus Station,http://tour-pedia.org/api/getPlaceDetails?id=31455,http://tour-pedia.org/api/getReviewsByPlaceId?placeId=31455
,poi,31456,52.3897961,4.8213808,Amsterdam,Trein naar Wormerveer.,Train,http://tour-pedia.org/api/getPlaceDetails?id=31456,http://tour-pedia.org/api/getReviewsByPlaceId?placeId=31456
,poi,31457,52.38618469,4.818375587,Amsterdam,trein hoorn kersenboogerd - amsterdam centraal,Train,http://tour-pedia.org/api/getPlaceDetails?id=31457,http://tour-pedia.org/api/getReviewsByPlaceId?placeId=31457
,poi,31458,52.38468152,4.819475553,Amsterdam,Bus 179 naar zwanenburg,Bus Line,http://tour-pedia.org/api/getPlaceDetails?id=31458,http://tour-pedia.org/api/getReviewsByPlaceId?placeId=31458
,poi,31462,52.38039501,4.827593217,Amsterdam,Burgemeester De Vlugtlaan,Road,http://tour-pedia.org/api/getPlaceDetails?id=31462,http://tour-pedia.org/api/getReviewsByPlaceId?placeId=31462
,poi,31463,52.3803604,4.828243412,Amsterdam,bus 21 cs,Bus Line,http://tour-pedia.org/api/getPlaceDetails?id=31463,http://tour-pedia.org/api/getReviewsByPlaceId?placeId=31463
,poi,31466,52.38070291,4.825923095,Amsterdam,Buslijn 80 naar Haarlem,Bus Line,http://tour-pedia.org/api/getPlaceDetails?id=31466,http://tour-pedia.org/api/getReviewsByPlaceId?placeId=31466
Lodewijk van Deysselstraat,poi,31468,52.37984322,4.818094969,Amsterdam,Tramhalte Lod. v. Deysselstraat,Light Rail,http://tour-pedia.org/api/getPlaceDetails?id=31468,http://tour-pedia.org/api/getReviewsByPlaceId?placeId=31468
,poi,31469,52.372967,4.823509,Amsterdam,"""de Pelikaan""",Boat or Ferry,http://tour-pedia.org/api/getPlaceDetails?id=31469,http://tour-pedia.org/api/getReviewsByPlaceId?placeId=31469
Jan Cupidohof 1-III,poi,31470,52.3740534,4.823942184,Amsterdam,Budget schiphol Taxi,Taxi,http://tour-pedia.org/api/getPlaceDetails?id=31470,http://tour-pedia.org/api/getReviewsByPlaceId?placeId=31470
,poi,31471,52.35718,4.813015,Amsterdam,Tjoekie,Road,http://tour-pedia.org/api/getPlaceDetails?id=31471,http://tour-pedia.org/api/getReviewsByPlaceId?placeId=31471
,poi,31472,52.366683,4.827764,Amsterdam,Bushalte Hermitagelaan,Bus Line,http://tour-pedia.org/api/getPlaceDetails?id=31472,http://tour-pedia.org/api/getReviewsByPlaceId?placeId=31472
,poi,31473,52.35980988,4.825371742,Amsterdam,emmanuel van meterenatraat,Road,http://tour-pedia.org/api/getPlaceDetails?id=31473,http://tour-pedia.org/api/getReviewsByPlaceId?placeId=31473
,poi,31474,52.35925951,4.825360152,Amsterdam,Op de rotonde,Road,http://tour-pedia.org/api/getPlaceDetails?id=31474,http://tour-pedia.org/api/getReviewsByPlaceId?placeId=31474
,poi,31475,52.354161,4.81226,Amsterdam,Flight Garuda 89 To Jakarta,Plane,http://tour-pedia.org/api/getPlaceDetails?id=31475,http://tour-pedia.org/api/getReviewsByPlaceId?placeId=31475
,poi,31476,52.357826,4.82612,Amsterdam,Tramhalte Johan Huizingalaan,Light Rail,http://tour-pedia.org/api/getPlaceDetails?id=31476,http://tour-pedia.org/api/getReviewsByPlaceId?placeId=31476
,poi,31477,52.356309,4.824753,Amsterdam,Fietsen langs esso,Road,http://tour-pedia.org/api/getPlaceDetails?id=31477,http://tour-pedia.org/api/getReviewsByPlaceId?placeId=31477
Moving Target!,poi,31478,52.34627269,4.823169708,Amsterdam,Bus 18 Slotervaart - Centraal Station,Bus Line,http://tour-pedia.org/api/getPlaceDetails?id=31478,http://tour-pedia.org/api/getReviewsByPlaceId?placeId=31478
,poi,31479,52.348717,4.827642,Amsterdam,Slotervaartziekenhuis BV parkeerplaats Expeditie,Road,http://tour-pedia.org/api/getPlaceDetails?id=31479,http://tour-pedia.org/api/getReviewsByPlaceId?placeId=31479
,poi,31480,52.34894242,4.827476273,Amsterdam,Johan huizingalaan halte bus 398 & tram 2,Bus Station,http://tour-pedia.org/api/getPlaceDetails?id=31480,http://tour-pedia.org/api/getReviewsByPlaceId?placeId=31480
,poi,31481,52.346742,4.824357,Amsterdam,Bus 247 naar Schiphol,Bus Line,http://tour-pedia.org/api/getPlaceDetails?id=31481,http://tour-pedia.org/api/getReviewsByPlaceId?placeId=31481
,poi,31482,52.34976768,4.827477336,Amsterdam,Tramhalte - Johan Huizingalaan,Light Rail,http://tour-pedia.org/api/getPlaceDetails?id=31482,http://tour-pedia.org/api/getReviewsByPlaceId?placeId=31482
,poi,31484,52.34264665,4.828590345,Amsterdam,Rieker Circle Line,Bus Line,http://tour-pedia.org/api/getPlaceDetails?id=31484,http://tour-pedia.org/api/getReviewsByPlaceId?placeId=31484
,poi,31485,52.34433493,4.827170201,Amsterdam,Duke Ellingtonstraat,Road,http://tour-pedia.org/api/getPlaceDetails?id=31485,http://tour-pedia.org/api/getReviewsByPlaceId?placeId=31485
on the way,poi,31486,52.33839572,4.820298736,Amsterdam,Train To Nijmegen,Train,http://tour-pedia.org/api/getPlaceDetails?id=31486,http://tour-pedia.org/api/getReviewsByPlaceId?placeId=31486
,poi,31487,52.34072659,4.827412963,Amsterdam,Bus Halte Slotervaart IBM,Bus Line,http://tour-pedia.org/api/getPlaceDetails?id=31487,http://tour-pedia.org/api/getReviewsByPlaceId?placeId=31487
Sloterweg,poi,31490,52.34195877,4.825061126,Amsterdam,Bus 145,Bus Line,http://tour-pedia.org/api/getPlaceDetails?id=31490,http://tour-pedia.org/api/getReviewsByPlaceId?placeId=31490
Sloterweg,poi,31491,52.34414836,4.825657315,Amsterdam,Bushalte L. Armstrongstraat,Bus Station,http://tour-pedia.org/api/getPlaceDetails?id=31491,http://tour-pedia.org/api/getReviewsByPlaceId?placeId=31491
,poi,31494,52.33838329,4.819934408,Amsterdam,Trein Schiphol - Leiden,Train,http://tour-pedia.org/api/getPlaceDetails?id=31494,http://tour-pedia.org/api/getReviewsByPlaceId?placeId=31494
,poi,31495,52.3386149,4.824737452,Amsterdam,Sprinter Hoorn Kersenboogerd,Train,http://tour-pedia.org/api/getPlaceDetails?id=31495,http://tour-pedia.org/api/getReviewsByPlaceId?placeId=31495
,poi,31496,52.34025616,4.827953168,Amsterdam,Bushalte Riekerpolder,Bus Station,http://tour-pedia.org/api/getPlaceDetails?id=31496,http://tour-pedia.org/api/getReviewsByPlaceId?placeId=31496
,poi,31497,52.33848277,4.825850814,Amsterdam,Sprinter Schiphol - Almere Oostvaarders,Train,http://tour-pedia.org/api/getPlaceDetails?id=31497,http://tour-pedia.org/api/getReviewsByPlaceId?placeId=31497
,poi,31498,52.34165944,4.825011302,Amsterdam,???????,Bus Line,http://tour-pedia.org/api/getPlaceDetails?id=31498,http://tour-pedia.org/api/getReviewsByPlaceId?placeId=31498
,poi,31499,52.33836158,4.826140301,Amsterdam,16:37 Apeldoorn,Train,http://tour-pedia.org/api/getPlaceDetails?id=31499,http://tour-pedia.org/api/getReviewsByPlaceId?placeId=31499
,poi,31500,52.33887503,4.827886607,Amsterdam,A4 richting Rotterdam,Road,http://tour-pedia.org/api/getPlaceDetails?id=31500,http://tour-pedia.org/api/getReviewsByPlaceId?placeId=31500
,poi,31505,52.39765668,4.834917203,Amsterdam,Sevenstar Yacht Transport,Boat or Ferry,http://tour-pedia.org/api/getPlaceDetails?id=31505,http://tour-pedia.org/api/getReviewsByPlaceId?placeId=31505
,poi,31506,52.39254947,4.830371801,Amsterdam,Op de grond van de trein naar Den Haag,Train,http://tour-pedia.org/api/getPlaceDetails?id=31506,http://tour-pedia.org/api/getReviewsByPlaceId?placeId=31506
,poi,31509,52.38877097,4.833605986,Amsterdam,Trein Amsterdam - Zandvoort,Train,http://tour-pedia.org/api/getPlaceDetails?id=31509,http://tour-pedia.org/api/getReviewsByPlaceId?placeId=31509
,poi,31510,52.3888181,4.829726096,Amsterdam,Train to Den Haag,Train,http://tour-pedia.org/api/getPlaceDetails?id=31510,http://tour-pedia.org/api/getReviewsByPlaceId?placeId=31510
,poi,31512,52.38993454,4.832611561,Amsterdam,Sprinter uitgeest rotterdam,Train,http://tour-pedia.org/api/getPlaceDetails?id=31512,http://tour-pedia.org/api/getReviewsByPlaceId?placeId=31512
Basisweg 60,poi,31513,52.39283519,4.83334123,Amsterdam,Westrandweg,Road,http://tour-pedia.org/api/getPlaceDetails?id=31513,http://tour-pedia.org/api/getReviewsByPlaceId?placeId=31513
,poi,31514,52.391604,4.833787,Amsterdam,Transformatorweg,Road,http://tour-pedia.org/api/getPlaceDetails?id=31514,http://tour-pedia.org/api/getReviewsByPlaceId?placeId=31514
,poi,31515,52.39187164,4.834041281,Amsterdam,Pendelbus Dancevalley,Boat or Ferry,http://tour-pedia.org/api/getPlaceDetails?id=31515,http://tour-pedia.org/api/getReviewsByPlaceId?placeId=31515
,poi,31516,52.38538361,4.832449913,Amsterdam,fietsenstalling SLOTERDIJK,Bike Rental / Bike Share,http://tour-pedia.org/api/getPlaceDetails?id=31516,http://tour-pedia.org/api/getReviewsByPlaceId?placeId=31516
,poi,31517,52.38695685,4.832852714,Amsterdam,NS bus naar Haarlem,Bus Line,http://tour-pedia.org/api/getPlaceDetails?id=31517,http://tour-pedia.org/api/getReviewsByPlaceId?placeId=31517
,poi,31518,52.39281585,4.83443852,Amsterdam,Pendelbus Awakenings,Bus Line,http://tour-pedia.org/api/getPlaceDetails?id=31518,http://tour-pedia.org/api/getReviewsByPlaceId?placeId=31518
Schiphol,poi,31519,52.387624,4.834231,Amsterdam,Sprinter Hoorn Kersenbooger,Train,http://tour-pedia.org/api/getPlaceDetails?id=31519,http://tour-pedia.org/api/getReviewsByPlaceId?placeId=31519
,poi,31520,52.39048,4.83539,Amsterdam,Trein Amsterdam Sloterdijk richting Vlissingen,Train,http://tour-pedia.org/api/getPlaceDetails?id=31520,http://tour-pedia.org/api/getReviewsByPlaceId?placeId=31520
,poi,31524,52.37873322,4.833003172,Amsterdam,Reina Prinsen Geerlingsstraat,Road,http://tour-pedia.org/api/getPlaceDetails?id=31524,http://tour-pedia.org/api/getReviewsByPlaceId?placeId=31524
,poi,31525,52.375105,4.83612,Amsterdam,Train To centraal Statoon,Train,http://tour-pedia.org/api/getPlaceDetails?id=31525,http://tour-pedia.org/api/getReviewsByPlaceId?placeId=31525
,poi,31527,52.37645306,4.835698894,Amsterdam,Intercity Amsterdam-Leiden,Train,http://tour-pedia.org/api/getPlaceDetails?id=31527,http://tour-pedia.org/api/getReviewsByPlaceId?placeId=31527
,poi,31528,52.38052738,4.834428199,Amsterdam,Trein Van Hoorn naar Schiphol,Train,http://tour-pedia.org/api/getPlaceDetails?id=31528,http://tour-pedia.org/api/getReviewsByPlaceId?placeId=31528
,poi,31529,52.3758279,4.83310183,Amsterdam,Tramhalte Geuzenveld,Light Rail,http://tour-pedia.org/api/getPlaceDetails?id=31529,http://tour-pedia.org/api/getReviewsByPlaceId?placeId=31529
,poi,31537,52.3805524,4.82517435,Amsterdam,Annie Aygo,Road,http://tour-pedia.org/api/getPlaceDetails?id=31537,http://tour-pedia.org/api/getReviewsByPlaceId?placeId=31537
Burgermeester Hogguerstraat,poi,31538,52.37269098,4.830057621,Amsterdam,Burgermeester Hogguerstraat,Road,http://tour-pedia.org/api/getPlaceDetails?id=31538,http://tour-pedia.org/api/getReviewsByPlaceId?placeId=31538
,poi,31539,52.37190482,4.830157106,Amsterdam,Burgemeester Hogguerstraat,Road,http://tour-pedia.org/api/getPlaceDetails?id=31539,http://tour-pedia.org/api/getReviewsByPlaceId?placeId=31539
,poi,31540,52.375154,4.83315,Amsterdam,My Car Renault Clio,Road,http://tour-pedia.org/api/getPlaceDetails?id=31540,http://tour-pedia.org/api/getReviewsByPlaceId?placeId=31540
,poi,31542,52.373737,4.834821,Amsterdam,My Mazda Fiesta,Taxi,http://tour-pedia.org/api/getPlaceDetails?id=31542,http://tour-pedia.org/api/getReviewsByPlaceId?placeId=31542
,poi,31544,52.36932755,4.833845139,Amsterdam,Tramhalte Jan Voermanstraat,Light Rail,http://tour-pedia.org/api/getPlaceDetails?id=31544,http://tour-pedia.org/api/getReviewsByPlaceId?placeId=31544
Huizingalaan,poi,31547,52.36221231,4.827391384,Amsterdam,Parking Slotervaart,Bus Station,http://tour-pedia.org/api/getPlaceDetails?id=31547,http://tour-pedia.org/api/getReviewsByPlaceId?placeId=31547
Robert Fruinlaan,poi,31548,52.364043,4.83016375,Amsterdam,Bushalte Lijn 18 Robert Fruinlaan,Bus Line,http://tour-pedia.org/api/getPlaceDetails?id=31548,http://tour-pedia.org/api/getReviewsByPlaceId?placeId=31548
Postjesweg,poi,31549,52.364764,4.834051,Amsterdam,tramhalte 17 witte de with,Light Rail,http://tour-pedia.org/api/getPlaceDetails?id=31549,http://tour-pedia.org/api/getReviewsByPlaceId?placeId=31549
,poi,31550,52.364463,4.830432,Amsterdam,Karl's Bike,Bike Rental / Bike Share,http://tour-pedia.org/api/getPlaceDetails?id=31550,http://tour-pedia.org/api/getReviewsByPlaceId?placeId=31550
,poi,31551,52.36460056,4.833748538,Amsterdam,Sprinter Schiphol - Amsterdam Muiderpoort,Train,http://tour-pedia.org/api/getPlaceDetails?id=31551,http://tour-pedia.org/api/getReviewsByPlaceId?placeId=31551
,poi,31553,52.37170029,4.835361958,Amsterdam,Station postjesweg.,Subway,http://tour-pedia.org/api/getPlaceDetails?id=31553,http://tour-pedia.org/api/getReviewsByPlaceId?placeId=31553
,poi,31556,52.35744953,4.833933,Amsterdam,Train to Hoofddorp,Light Rail,http://tour-pedia.org/api/getPlaceDetails?id=31556,http://tour-pedia.org/api/getReviewsByPlaceId?placeId=31556
Johan huizingalaan,poi,31558,52.356365,4.82767897,Amsterdam,Johan Huizingalaan,Road,http://tour-pedia.org/api/getPlaceDetails?id=31558,http://tour-pedia.org/api/getReviewsByPlaceId?placeId=31558
,poi,31564,52.35571946,4.826451725,Amsterdam,Van ollefenstraat,Road,http://tour-pedia.org/api/getPlaceDetails?id=31564,http://tour-pedia.org/api/getReviewsByPlaceId?placeId=31564
,poi,31565,52.35518301,4.827342319,Amsterdam,bus 195,Bus Line,http://tour-pedia.org/api/getPlaceDetails?id=31565,http://tour-pedia.org/api/getReviewsByPlaceId?placeId=31565
Moving Target!,poi,31567,52.35763481,4.834013731,Amsterdam,Sprinter Sloterdijk - Hoofddorp,Train,http://tour-pedia.org/api/getPlaceDetails?id=31567,http://tour-pedia.org/api/getReviewsByPlaceId?placeId=31567
,poi,31569,52.358641,4.833794,Amsterdam,My Way To The Hotel,Road,http://tour-pedia.org/api/getPlaceDetails?id=31569,http://tour-pedia.org/api/getReviewsByPlaceId?placeId=31569
,poi,31570,52.35774904,4.834002778,Amsterdam,Trein van station Lelylaan naar Leiden Centraal,Train,http://tour-pedia.org/api/getPlaceDetails?id=31570,http://tour-pedia.org/api/getReviewsByPlaceId?placeId=31570
,poi,31572,52.35693268,4.833931965,Amsterdam,Intercity Amsterdam-Rotterdam,Train,http://tour-pedia.org/api/getPlaceDetails?id=31572,http://tour-pedia.org/api/getReviewsByPlaceId?placeId=31572
,poi,31573,52.357784,4.834004,Amsterdam,Trein naar Hoofddorp,Train,http://tour-pedia.org/api/getPlaceDetails?id=31573,http://tour-pedia.org/api/getReviewsByPlaceId?placeId=31573
Moving Target!,poi,31574,52.35729589,4.834148763,Amsterdam,Sprinter Leylaan - Hoorn Kersenboogerd,Train,http://tour-pedia.org/api/getPlaceDetails?id=31574,http://tour-pedia.org/api/getReviewsByPlaceId?placeId=31574
,poi,31575,52.35697556,4.834356308,Amsterdam,Treistel  7506,Subway,http://tour-pedia.org/api/getPlaceDetails?id=31575,http://tour-pedia.org/api/getReviewsByPlaceId?placeId=31575
,poi,31576,52.35623695,4.835482943,Amsterdam,"Schipluidenlaan, Amsterdam",Road,http://tour-pedia.org/api/getPlaceDetails?id=31576,http://tour-pedia.org/api/getReviewsByPlaceId?placeId=31576
otto heldringstraat,poi,31580,52.34699018,4.83305909,Amsterdam,bushalte otto heldringstraat,Bus Line,http://tour-pedia.org/api/getPlaceDetails?id=31580,http://tour-pedia.org/api/getReviewsByPlaceId?placeId=31580
,poi,31581,52.34699023,4.827617472,Amsterdam,bushalte aletta jacobsstraat,Bus Line,http://tour-pedia.org/api/getPlaceDetails?id=31581,http://tour-pedia.org/api/getReviewsByPlaceId?placeId=31581
Leidseplein,poi,31582,52.34693134,4.828755324,Amsterdam,Bus 145,Bus Line,http://tour-pedia.org/api/getPlaceDetails?id=31582,http://tour-pedia.org/api/getReviewsByPlaceId?placeId=31582
,poi,31583,52.34924873,4.834127353,Amsterdam,Fyria,Train,http://tour-pedia.org/api/getPlaceDetails?id=31583,http://tour-pedia.org/api/getReviewsByPlaceId?placeId=31583
Johan Huizingalaan,poi,31584,52.34679817,4.827998023,Amsterdam,Johan Huizingalaan Amsterdam,Bus Station,http://tour-pedia.org/api/getPlaceDetails?id=31584,http://tour-pedia.org/api/getReviewsByPlaceId?placeId=31584
Moving target!,poi,31585,52.343762,4.827938,Amsterdam,Buslijn 395 Richting Wormerlan,Bus Line,http://tour-pedia.org/api/getPlaceDetails?id=31585,http://tour-pedia.org/api/getReviewsByPlaceId?placeId=31585
,poi,31587,52.33762466,4.8326922,Amsterdam,A4,Road,http://tour-pedia.org/api/getPlaceDetails?id=31587,http://tour-pedia.org/api/getReviewsByPlaceId?placeId=31587
,poi,31589,52.33873304,4.834255913,Amsterdam,Schipol Smoking Area,Airport Food Court,http://tour-pedia.org/api/getPlaceDetails?id=31589,http://tour-pedia.org/api/getReviewsByPlaceId?placeId=31589
,poi,31591,52.33857312,4.834231777,Amsterdam,Intercity Schiphol - Brussel-Zuid/Midi,Train,http://tour-pedia.org/api/getPlaceDetails?id=31591,http://tour-pedia.org/api/getReviewsByPlaceId?placeId=31591
,poi,31592,52.33979198,4.833716496,Amsterdam,Train Schiphol Amsterdam (AMS) - Hoorn kersenboogerd,Train,http://tour-pedia.org/api/getPlaceDetails?id=31592,http://tour-pedia.org/api/getReviewsByPlaceId?placeId=31592
,poi,31593,52.34071695,4.827850676,Amsterdam,Bus Line 195,Bus Line,http://tour-pedia.org/api/getPlaceDetails?id=31593,http://tour-pedia.org/api/getReviewsByPlaceId?placeId=31593
,poi,31594,52.33772278,4.830529213,Amsterdam,Flight HV345 to Antalya,Plane,http://tour-pedia.org/api/getPlaceDetails?id=31594,http://tour-pedia.org/api/getReviewsByPlaceId?placeId=31594
,poi,31595,52.33822537,4.836096719,Amsterdam,Trein Schiphol - Utrecht,Train,http://tour-pedia.org/api/getPlaceDetails?id=31595,http://tour-pedia.org/api/getReviewsByPlaceId?placeId=31595
,poi,31596,52.4040947,4.837379456,Amsterdam,Amsterdam westhaven,Road,http://tour-pedia.org/api/getPlaceDetails?id=31596,http://tour-pedia.org/api/getReviewsByPlaceId?placeId=31596
,poi,31599,52.39139109,4.838504935,Amsterdam,Orlyplein Ingang Sloterdijk,Train Station,http://tour-pedia.org/api/getPlaceDetails?id=31599,http://tour-pedia.org/api/getReviewsByPlaceId?placeId=31599
,poi,31601,52.394531,4.837495,Amsterdam,Nachttrein Amsterdam Centraal - Leiden,Train,http://tour-pedia.org/api/getPlaceDetails?id=31601,http://tour-pedia.org/api/getReviewsByPlaceId?placeId=31601
Donauweg 11,poi,31603,52.39394001,4.838430068,Amsterdam,SternRent,Rental Car Location,http://tour-pedia.org/api/getPlaceDetails?id=31603,http://tour-pedia.org/api/getReviewsByPlaceId?placeId=31603
,poi,31608,52.38802331,4.838838424,Amsterdam,Sloterdijk Carrascoplein,Bus Station,http://tour-pedia.org/api/getPlaceDetails?id=31608,http://tour-pedia.org/api/getReviewsByPlaceId?placeId=31608
,poi,31618,52.38857686,4.840284783,Amsterdam,Halte pendelbus ING,Bus Station,http://tour-pedia.org/api/getPlaceDetails?id=31618,http://tour-pedia.org/api/getReviewsByPlaceId?placeId=31618
,poi,31620,52.38740098,4.838354717,Amsterdam,Bus 82 naar IJmuiden,Bus Line,http://tour-pedia.org/api/getPlaceDetails?id=31620,http://tour-pedia.org/api/getReviewsByPlaceId?placeId=31620
Moving Target!,poi,31623,52.389183,4.838856139,Amsterdam,Intercity Amsterdam Sloterdijk - Alkmaar,Train,http://tour-pedia.org/api/getPlaceDetails?id=31623,http://tour-pedia.org/api/getReviewsByPlaceId?placeId=31623
,poi,31624,52.39109669,4.84120376,Amsterdam,A10,Road,http://tour-pedia.org/api/getPlaceDetails?id=31624,http://tour-pedia.org/api/getReviewsByPlaceId?placeId=31624
Station Amsterdam Sloterdijk,poi,31625,52.38880153,4.837932587,Amsterdam,Sprinter Amsterdam Sloterdijk - Uitgeest,Train,http://tour-pedia.org/api/getPlaceDetails?id=31625,http://tour-pedia.org/api/getReviewsByPlaceId?placeId=31625
Moving Target!,poi,31626,52.3887038,4.838416075,Amsterdam,Intercity Amsterdam - Leiden Centraal,Train,http://tour-pedia.org/api/getPlaceDetails?id=31626,http://tour-pedia.org/api/getReviewsByPlaceId?placeId=31626
Radarweg,poi,31627,52.38922098,4.836954249,Amsterdam,NS-bussen Treinvervangend Vervoer,Train Station,http://tour-pedia.org/api/getPlaceDetails?id=31627,http://tour-pedia.org/api/getReviewsByPlaceId?placeId=31627
Moving Target!,poi,31629,52.38800849,4.838346696,Amsterdam,Bus 69 Sloterdijk - Schiphol Plaza,Bus Line,http://tour-pedia.org/api/getPlaceDetails?id=31629,http://tour-pedia.org/api/getReviewsByPlaceId?placeId=31629
,poi,31630,52.38841,4.83951,Amsterdam,Sprinter Amsterdam Sloterdijk-Rhenen,Light Rail,http://tour-pedia.org/api/getPlaceDetails?id=31630,http://tour-pedia.org/api/getReviewsByPlaceId?placeId=31630
,poi,31631,52.38829965,4.838213519,Amsterdam,Bus 82 Richting Marnixstraat,Bus Line,http://tour-pedia.org/api/getPlaceDetails?id=31631,http://tour-pedia.org/api/getReviewsByPlaceId?placeId=31631
"Radarweg, Amsterdam",poi,31632,52.38780232,4.837368854,Amsterdam,Station Amsterdam Sloterdijk - Hemboog (spoor 9/10),Train Station,http://tour-pedia.org/api/getPlaceDetails?id=31632,http://tour-pedia.org/api/getReviewsByPlaceId?placeId=31632
,poi,31634,52.38746009,4.838484218,Amsterdam,station lelylaan,Train,http://tour-pedia.org/api/getPlaceDetails?id=31634,http://tour-pedia.org/api/getReviewsByPlaceId?placeId=31634
Moving Target!,poi,31636,52.38772849,4.838749,Amsterdam,Bus 60 Sloterdijk-Nassaukade,Bus Line,http://tour-pedia.org/api/getPlaceDetails?id=31636,http://tour-pedia.org/api/getReviewsByPlaceId?placeId=31636
Moving Target!,poi,31638,52.38848724,4.837589264,Amsterdam,Intercity Sloterdijk - Lelystad Centrum,Train,http://tour-pedia.org/api/getPlaceDetails?id=31638,http://tour-pedia.org/api/getReviewsByPlaceId?placeId=31638
,poi,31640,52.39465197,4.842525243,Amsterdam,Amsterdam short Rally,Road,http://tour-pedia.org/api/getPlaceDetails?id=31640,http://tour-pedia.org/api/getReviewsByPlaceId?placeId=31640
Burgemeester de Vlugtlaan,poi,31641,52.37940352,4.838174914,Amsterdam,Metrostation De Vlugtlaan,Subway,http://tour-pedia.org/api/getPlaceDetails?id=31641,http://tour-pedia.org/api/getReviewsByPlaceId?placeId=31641
Rijksweg A10,poi,31642,52.38482029,4.844455719,Amsterdam,A10 - Afslag S103,Road,http://tour-pedia.org/api/getPlaceDetails?id=31642,http://tour-pedia.org/api/getReviewsByPlaceId?placeId=31642
,poi,31644,52.37911651,4.838166906,Amsterdam,Bushalte Vlugtlaan,Bus Station,http://tour-pedia.org/api/getPlaceDetails?id=31644,http://tour-pedia.org/api/getReviewsByPlaceId?placeId=31644
Moving target,poi,31645,52.38107649,4.838711687,Amsterdam,Trein Amsterdam CS - Den Haag CS,Train,http://tour-pedia.org/api/getPlaceDetails?id=31645,http://tour-pedia.org/api/getReviewsByPlaceId?placeId=31645
Rijksweg A10,poi,31647,52.37220627,4.842073917,Amsterdam,A10 - Afslag S105 (Jan van Galenstraat),Road,http://tour-pedia.org/api/getPlaceDetails?id=31647,http://tour-pedia.org/api/getReviewsByPlaceId?placeId=31647
Jan Tooropstraat,poi,31649,52.371068,4.838094,Amsterdam,Tram- en Bushalte Jan Tooropstraat,Light Rail,http://tour-pedia.org/api/getPlaceDetails?id=31649,http://tour-pedia.org/api/getReviewsByPlaceId?placeId=31649
,poi,31650,52.36961228,4.83679533,Amsterdam,jan evertsenstraat,Road,http://tour-pedia.org/api/getPlaceDetails?id=31650,http://tour-pedia.org/api/getReviewsByPlaceId?placeId=31650
Jan Evertsenstraat,poi,31651,52.36930322,4.838742956,Amsterdam,Tram- en Bushalte Jan Voermanstraat,Bus Station,http://tour-pedia.org/api/getPlaceDetails?id=31651,http://tour-pedia.org/api/getReviewsByPlaceId?placeId=31651
,poi,31653,52.369798,4.837165,Amsterdam,Taxi,Taxi,http://tour-pedia.org/api/getPlaceDetails?id=31653,http://tour-pedia.org/api/getReviewsByPlaceId?placeId=31653
Leeuwendalersweg,poi,31654,52.37695779,4.837232318,Amsterdam,Leeuwendalersweg,Road,http://tour-pedia.org/api/getPlaceDetails?id=31654,http://tour-pedia.org/api/getReviewsByPlaceId?placeId=31654
,poi,31655,52.378704,4.837197,Amsterdam,Imtercity,Train,http://tour-pedia.org/api/getPlaceDetails?id=31655,http://tour-pedia.org/api/getReviewsByPlaceId?placeId=31655
Schiphol airport,poi,31658,52.36515924,4.837796037,Amsterdam,Schiphol gate D05,Airport Gate,http://tour-pedia.org/api/getPlaceDetails?id=31658,http://tour-pedia.org/api/getReviewsByPlaceId?placeId=31658
,poi,31659,52.36605835,4.838047028,Amsterdam,Jan van galenstraat,Light Rail,http://tour-pedia.org/api/getPlaceDetails?id=31659,http://tour-pedia.org/api/getReviewsByPlaceId?placeId=31659
,poi,31661,52.365436,4.835032,Amsterdam,? ????????? ??????????? ??????,Train,http://tour-pedia.org/api/getPlaceDetails?id=31661,http://tour-pedia.org/api/getReviewsByPlaceId?placeId=31661
Jan Evertsenstraat,poi,31662,52.36992671,4.835786819,Amsterdam,Bushalte Jan Evertsenstraat,Bus Station,http://tour-pedia.org/api/getPlaceDetails?id=31662,http://tour-pedia.org/api/getReviewsByPlaceId?placeId=31662
,poi,31663,52.368416,4.840986,Amsterdam,Tramstation Adm. Helfrichstraat,Light Rail,http://tour-pedia.org/api/getPlaceDetails?id=31663,http://tour-pedia.org/api/getReviewsByPlaceId?placeId=31663
,poi,31664,52.36469861,4.840650297,Amsterdam,Bushalte Derkinderenstraat,Bus Line,http://tour-pedia.org/api/getPlaceDetails?id=31664,http://tour-pedia.org/api/getReviewsByPlaceId?placeId=31664
,poi,31666,52.367762,4.843921,Amsterdam,Ramada Shuttle Bus,Taxi,http://tour-pedia.org/api/getPlaceDetails?id=31666,http://tour-pedia.org/api/getReviewsByPlaceId?placeId=31666
Rijksweg A10,poi,31667,52.35791127,4.842642546,Amsterdam,"A10 (S106, Osdorp)",Road,http://tour-pedia.org/api/getPlaceDetails?id=31667,http://tour-pedia.org/api/getReviewsByPlaceId?placeId=31667
Derkinderenstraat,poi,31668,52.3580161,4.840217829,Amsterdam,Tramhalte Derkinderenstraat,Light Rail,http://tour-pedia.org/api/getPlaceDetails?id=31668,http://tour-pedia.org/api/getReviewsByPlaceId?placeId=31668
,poi,31669,52.35275019,4.835929623,Amsterdam,"Wittgensteinlaan, Amsterdam",Road,http://tour-pedia.org/api/getPlaceDetails?id=31669,http://tour-pedia.org/api/getReviewsByPlaceId?placeId=31669
,poi,31670,52.35295806,4.838659308,Amsterdam,"Fregelaan,  Amsterdam",Road,http://tour-pedia.org/api/getPlaceDetails?id=31670,http://tour-pedia.org/api/getReviewsByPlaceId?placeId=31670
Johan Huizingalaan,poi,31672,52.35070687,4.827425,Amsterdam,Tramhalte Johan Huizingalaan,Light Rail,http://tour-pedia.org/api/getPlaceDetails?id=31672,http://tour-pedia.org/api/getReviewsByPlaceId?placeId=31672
,poi,31673,52.35765839,4.841790676,Amsterdam,kinderen Straat (Amsterdam),Subway,http://tour-pedia.org/api/getPlaceDetails?id=31673,http://tour-pedia.org/api/getReviewsByPlaceId?placeId=31673
,poi,31675,52.35669458,4.842729354,Amsterdam,RING-Zuid,Road,http://tour-pedia.org/api/getPlaceDetails?id=31675,http://tour-pedia.org/api/getReviewsByPlaceId?placeId=31675
Rijksweg A10,poi,31677,52.34580079,4.840979576,Amsterdam,A10 - Afslag S107,Road,http://tour-pedia.org/api/getPlaceDetails?id=31677,http://tour-pedia.org/api/getReviewsByPlaceId?placeId=31677
Heemstedestraat,poi,31681,52.35152878,4.842009544,Amsterdam,Tramhalte Delflandlaan,Light Rail,http://tour-pedia.org/api/getPlaceDetails?id=31681,http://tour-pedia.org/api/getReviewsByPlaceId?placeId=31681
,poi,31682,52.34716488,4.838923189,Amsterdam,Bushalte Lijn 62/145 Maassluisstraat,Bus Line,http://tour-pedia.org/api/getPlaceDetails?id=31682,http://tour-pedia.org/api/getReviewsByPlaceId?placeId=31682
westlandgracht,poi,31684,52.35075772,4.845180611,Amsterdam,Bootje 'Witte Geit',Boat or Ferry,http://tour-pedia.org/api/getPlaceDetails?id=31684,http://tour-pedia.org/api/getReviewsByPlaceId?placeId=31684
Heemstedestraat,poi,31685,52.35143703,4.844799042,Amsterdam,Tramhalte Westlandgracht,Light Rail,http://tour-pedia.org/api/getPlaceDetails?id=31685,http://tour-pedia.org/api/getReviewsByPlaceId?placeId=31685
Rijksweg A4,poi,31686,52.33811862,4.840936661,Amsterdam,Knooppunt De Nieuwe Meer,Road,http://tour-pedia.org/api/getPlaceDetails?id=31686,http://tour-pedia.org/api/getReviewsByPlaceId?placeId=31686
,poi,31687,52.33853376,4.842192012,Amsterdam,Ring A10,Road,http://tour-pedia.org/api/getPlaceDetails?id=31687,http://tour-pedia.org/api/getReviewsByPlaceId?placeId=31687
,poi,31688,52.3381942,4.837648064,Amsterdam,A10 Ring Zuid,Road,http://tour-pedia.org/api/getPlaceDetails?id=31688,http://tour-pedia.org/api/getReviewsByPlaceId?placeId=31688
,poi,31689,52.34705,4.842574213,Amsterdam,Bus 145,Bus Line,http://tour-pedia.org/api/getPlaceDetails?id=31689,http://tour-pedia.org/api/getReviewsByPlaceId?placeId=31689
"Naaldwijkstraat, 1059 Amsterdam",poi,31690,52.34686282,4.842023925,Amsterdam,Bushalte Naaldwijkstraat,Bus Line,http://tour-pedia.org/api/getPlaceDetails?id=31690,http://tour-pedia.org/api/getReviewsByPlaceId?placeId=31690
,poi,31697,52.40346118,4.842243338,Amsterdam,"Amsterdam Westhaven (Awhv), goederenstation",Train Station,http://tour-pedia.org/api/getPlaceDetails?id=31697,http://tour-pedia.org/api/getReviewsByPlaceId?placeId=31697
Westhavenweg,poi,31698,52.402484,4.843335,Amsterdam,Railion Gebouw !!!,Train,http://tour-pedia.org/api/getPlaceDetails?id=31698,http://tour-pedia.org/api/getReviewsByPlaceId?placeId=31698
"Westhavenweg, Amsterdam",poi,31699,52.40274531,4.847569366,Amsterdam,Amsterdam Westhaven Emplacement (Awhv),Train,http://tour-pedia.org/api/getPlaceDetails?id=31699,http://tour-pedia.org/api/getReviewsByPlaceId?placeId=31699
,poi,31701,52.402065,4.84824,Amsterdam,nieuwe hemweg,Road,http://tour-pedia.org/api/getPlaceDetails?id=31701,http://tour-pedia.org/api/getReviewsByPlaceId?placeId=31701
Moving Target,poi,31702,52.39532267,4.851021767,Amsterdam,Metro 50 Isolatorweg - Gaasperplas,Subway,http://tour-pedia.org/api/getPlaceDetails?id=31702,http://tour-pedia.org/api/getReviewsByPlaceId?placeId=31702
Rijksweg A10,poi,31703,52.39198365,4.844198227,Amsterdam,A10 - Afslag S102 (Haarlem),Road,http://tour-pedia.org/api/getPlaceDetails?id=31703,http://tour-pedia.org/api/getReviewsByPlaceId?placeId=31703
Transformatorweg,poi,31704,52.39171797,4.845219101,Amsterdam,Transformatorweg,Road,http://tour-pedia.org/api/getPlaceDetails?id=31704,http://tour-pedia.org/api/getReviewsByPlaceId?placeId=31704
Rijksweg A10,poi,31705,52.40107042,4.849348068,Amsterdam,A10 - Afslag S101,Road,http://tour-pedia.org/api/getPlaceDetails?id=31705,http://tour-pedia.org/api/getReviewsByPlaceId?placeId=31705
Zekeringsstraat,poi,31706,52.39658891,4.847811152,Amsterdam,Bushalte Zekeringstraat,Bus Line,http://tour-pedia.org/api/getPlaceDetails?id=31706,http://tour-pedia.org/api/getReviewsByPlaceId?placeId=31706
Kabelweg,poi,31707,52.39568929,4.84703064,Amsterdam,Bushalte Kabelweg,Bus Station,http://tour-pedia.org/api/getPlaceDetails?id=31707,http://tour-pedia.org/api/getReviewsByPlaceId?placeId=31707
Moving Target!,poi,31710,52.38898487,4.838619232,Amsterdam,Intercity Amsterdam Sloterdijk - Enkhuizen,Train,http://tour-pedia.org/api/getPlaceDetails?id=31710,http://tour-pedia.org/api/getReviewsByPlaceId?placeId=31710
Moving Target!,poi,31711,52.38895868,4.837889671,Amsterdam,Sneltrein Amsterdam Sloterdijk - Dordrecht,Train,http://tour-pedia.org/api/getPlaceDetails?id=31711,http://tour-pedia.org/api/getReviewsByPlaceId?placeId=31711
,poi,31713,52.38925014,4.838152401,Amsterdam,trein Amsterdam - Beverwijk,Train,http://tour-pedia.org/api/getPlaceDetails?id=31713,http://tour-pedia.org/api/getReviewsByPlaceId?placeId=31713
,poi,31714,52.39168431,4.844797933,Amsterdam,File voor de Coentunnel,Road,http://tour-pedia.org/api/getPlaceDetails?id=31714,http://tour-pedia.org/api/getReviewsByPlaceId?placeId=31714
Haarlemmerweg,poi,31718,52.38529287,4.847589659,Amsterdam,Tramhalte Haarlemmerweg,Light Rail,http://tour-pedia.org/api/getPlaceDetails?id=31718,http://tour-pedia.org/api/getReviewsByPlaceId?placeId=31718
,poi,31722,52.37436013,4.847023268,Amsterdam,Orteliusstraat,Road,http://tour-pedia.org/api/getPlaceDetails?id=31722,http://tour-pedia.org/api/getReviewsByPlaceId?placeId=31722
Rijksweg A10,poi,31723,52.37784569,4.844048023,Amsterdam,A10 - Afslag S104,Road,http://tour-pedia.org/api/getPlaceDetails?id=31723,http://tour-pedia.org/api/getReviewsByPlaceId?placeId=31723
,poi,31725,52.37885215,4.847860096,Amsterdam,Trouringhstraat,Road,http://tour-pedia.org/api/getPlaceDetails?id=31725,http://tour-pedia.org/api/getReviewsByPlaceId?placeId=31725
Jan van Galenstraat,poi,31733,52.37308668,4.848643077,Amsterdam,Bushalte Jan van Galenstraat,Bus Station,http://tour-pedia.org/api/getPlaceDetails?id=31733,http://tour-pedia.org/api/getReviewsByPlaceId?placeId=31733
Hoofdweg,poi,31734,52.37645064,4.846848249,Amsterdam,Tram- en Bushalte Erasmusgracht,Light Rail,http://tour-pedia.org/api/getPlaceDetails?id=31734,http://tour-pedia.org/api/getReviewsByPlaceId?placeId=31734
Akbarstraat,poi,31735,52.381773,4.84107,Amsterdam,Bushalte Akbarstraat,Bus Station,http://tour-pedia.org/api/getPlaceDetails?id=31735,http://tour-pedia.org/api/getReviewsByPlaceId?placeId=31735
,poi,31736,52.37586353,4.847742028,Amsterdam,Hoofdweg,Road,http://tour-pedia.org/api/getPlaceDetails?id=31736,http://tour-pedia.org/api/getReviewsByPlaceId?placeId=31736
Postjesweg,poi,31737,52.3636901,4.853210449,Amsterdam,Bushalte Postjesweg,Bus Line,http://tour-pedia.org/api/getPlaceDetails?id=31737,http://tour-pedia.org/api/getReviewsByPlaceId?placeId=31737
,poi,31739,52.36433869,4.85247016,Amsterdam,Tramhalte Postjesweg,Light Rail,http://tour-pedia.org/api/getPlaceDetails?id=31739,http://tour-pedia.org/api/getReviewsByPlaceId?placeId=31739
,poi,31743,52.36690694,4.854034104,Amsterdam,Hudsonstraat,Road,http://tour-pedia.org/api/getPlaceDetails?id=31743,http://tour-pedia.org/api/getReviewsByPlaceId?placeId=31743
Woestduinstraat,poi,31746,52.35354692,4.847614844,Amsterdam,Woestduinstraat,Road,http://tour-pedia.org/api/getPlaceDetails?id=31746,http://tour-pedia.org/api/getReviewsByPlaceId?placeId=31746
,poi,31750,52.351177,4.849756,Amsterdam,Tramhalte Hoofddorpplein,Light Rail,http://tour-pedia.org/api/getPlaceDetails?id=31750,http://tour-pedia.org/api/getReviewsByPlaceId?placeId=31750
Hoofddorpplein,poi,31754,52.35141337,4.850251508,Amsterdam,Bushalte Hoofddorpplein,Bus Station,http://tour-pedia.org/api/getPlaceDetails?id=31754,http://tour-pedia.org/api/getReviewsByPlaceId?placeId=31754
Jaagpad 26,poi,31756,52.33807068,4.847994026,Amsterdam,Brug,Boat or Ferry,http://tour-pedia.org/api/getPlaceDetails?id=31756,http://tour-pedia.org/api/getReviewsByPlaceId?placeId=31756
Schiphol,poi,31757,52.33766964,4.840893093,Amsterdam,Trein van Schiphol nr Leiden,Train,http://tour-pedia.org/api/getPlaceDetails?id=31757,http://tour-pedia.org/api/getReviewsByPlaceId?placeId=31757
,poi,31758,52.33845797,4.840394152,Amsterdam,trein van schiphol naar berlijn,Train,http://tour-pedia.org/api/getPlaceDetails?id=31758,http://tour-pedia.org/api/getReviewsByPlaceId?placeId=31758
,poi,31759,52.3387418,4.844897086,Amsterdam,Connexxion 197 naar Schiphol,Bus Line,http://tour-pedia.org/api/getPlaceDetails?id=31759,http://tour-pedia.org/api/getReviewsByPlaceId?placeId=31759
,poi,31760,52.33863799,4.827023412,Amsterdam,Sneltrain to Amsterdam Centraal,Train,http://tour-pedia.org/api/getPlaceDetails?id=31760,http://tour-pedia.org/api/getReviewsByPlaceId?placeId=31760
Moving Target!,poi,31761,52.33660647,4.8154329,Amsterdam,Intercity Schiphol - Heerlen,Train,http://tour-pedia.org/api/getPlaceDetails?id=31761,http://tour-pedia.org/api/getReviewsByPlaceId?placeId=31761
,poi,31762,52.33963236,4.846882166,Amsterdam,Baldur,Boat or Ferry,http://tour-pedia.org/api/getPlaceDetails?id=31762,http://tour-pedia.org/api/getReviewsByPlaceId?placeId=31762
,poi,31764,52.346468,4.834393,Amsterdam,Henk Sneevlietweg,Subway,http://tour-pedia.org/api/getPlaceDetails?id=31764,http://tour-pedia.org/api/getReviewsByPlaceId?placeId=31764
,poi,31765,52.3472,4.839847,Amsterdam,Venkels Racemonster,Rental Car Location,http://tour-pedia.org/api/getPlaceDetails?id=31765,http://tour-pedia.org/api/getReviewsByPlaceId?placeId=31765
Vlothavenweg 10,poi,31770,52.405383,4.852997,Amsterdam,Tsjerk Hiddes,Boat or Ferry,http://tour-pedia.org/api/getPlaceDetails?id=31770,http://tour-pedia.org/api/getReviewsByPlaceId?placeId=31770
Hexaanweg 1,poi,31772,52.40860006,4.855699519,Amsterdam,Diks Autoverhuur,Road,http://tour-pedia.org/api/getPlaceDetails?id=31772,http://tour-pedia.org/api/getReviewsByPlaceId?placeId=31772
,poi,31773,52.402849,4.854709,Amsterdam,Spaansen Vlothaven,Boat or Ferry,http://tour-pedia.org/api/getPlaceDetails?id=31773,http://tour-pedia.org/api/getReviewsByPlaceId?placeId=31773
,poi,31774,52.3989202,4.847532609,Amsterdam,A9 Afslag 102,Road,http://tour-pedia.org/api/getPlaceDetails?id=31774,http://tour-pedia.org/api/getReviewsByPlaceId?placeId=31774
,poi,31776,52.401718,4.855116,Amsterdam,De Zeemeeuw,Boat or Ferry,http://tour-pedia.org/api/getPlaceDetails?id=31776,http://tour-pedia.org/api/getReviewsByPlaceId?placeId=31776
,poi,31778,52.407733,4.858422,Amsterdam,Construction Site,Road,http://tour-pedia.org/api/getPlaceDetails?id=31778,http://tour-pedia.org/api/getReviewsByPlaceId?placeId=31778
,poi,31781,52.393474,4.839899,Amsterdam,Train To Paris,Train,http://tour-pedia.org/api/getPlaceDetails?id=31781,http://tour-pedia.org/api/getReviewsByPlaceId?placeId=31781
,poi,31786,52.39195893,4.848237809,Amsterdam,Einsteinweg,Road,http://tour-pedia.org/api/getPlaceDetails?id=31786,http://tour-pedia.org/api/getReviewsByPlaceId?placeId=31786
,poi,31787,52.39122618,4.846496056,Amsterdam,Vast In De File... :-(,Road,http://tour-pedia.org/api/getPlaceDetails?id=31787,http://tour-pedia.org/api/getReviewsByPlaceId?placeId=31787
,poi,31788,52.38984123,4.851835434,Amsterdam,Sprinter Amsterdam CS- Hoorn,Train,http://tour-pedia.org/api/getPlaceDetails?id=31788,http://tour-pedia.org/api/getReviewsByPlaceId?placeId=31788
,poi,31789,52.3892472,4.838988333,Amsterdam,Trein Amsterdam - Santpoort-Thuis,Train Station,http://tour-pedia.org/api/getPlaceDetails?id=31789,http://tour-pedia.org/api/getReviewsByPlaceId?placeId=31789
,poi,31793,52.38878121,4.840313786,Amsterdam,Pendelbus Amsterdam Sloterdijk - Haarlem,Bus Line,http://tour-pedia.org/api/getPlaceDetails?id=31793,http://tour-pedia.org/api/getReviewsByPlaceId?placeId=31793
,poi,31794,52.38874017,4.83876987,Amsterdam,Intercity Amsterdam Centraal - Den Haag Centraal,Train,http://tour-pedia.org/api/getPlaceDetails?id=31794,http://tour-pedia.org/api/getReviewsByPlaceId?placeId=31794
,poi,31795,52.38533157,4.851562157,Amsterdam,Halte Pendelbus ING HLW D,Bus Station,http://tour-pedia.org/api/getPlaceDetails?id=31795,http://tour-pedia.org/api/getReviewsByPlaceId?placeId=31795
,poi,31797,52.38900643,4.855031789,Amsterdam,Trein Sloterdijk-Amsterdam,Train,http://tour-pedia.org/api/getPlaceDetails?id=31797,http://tour-pedia.org/api/getReviewsByPlaceId?placeId=31797
Moving Target!,poi,31798,52.38820577,4.855883178,Amsterdam,Bus 48 Sloterdijk - Borneo Eiland,Bus Line,http://tour-pedia.org/api/getPlaceDetails?id=31798,http://tour-pedia.org/api/getReviewsByPlaceId?placeId=31798
,poi,31799,52.38455454,4.847438212,Amsterdam,Bushalte Haarlemmerweg,Bus Station,http://tour-pedia.org/api/getPlaceDetails?id=31799,http://tour-pedia.org/api/getReviewsByPlaceId?placeId=31799
,poi,31800,52.38515085,4.852520932,Amsterdam,Haarlemmerweg,Road,http://tour-pedia.org/api/getPlaceDetails?id=31800,http://tour-pedia.org/api/getReviewsByPlaceId?placeId=31800
Admiraal de Ruijterweg,poi,31802,52.38265926,4.852341413,Amsterdam,Tram- en Bushalte Wiltzanghlaan?,Light Rail,http://tour-pedia.org/api/getPlaceDetails?id=31802,http://tour-pedia.org/api/getReviewsByPlaceId?placeId=31802
Moving Target!,poi,31804,52.37174488,4.853999412,Amsterdam,Tram 13 Geuzenveld - Centraal Station,Light Rail,http://tour-pedia.org/api/getPlaceDetails?id=31804,http://tour-pedia.org/api/getReviewsByPlaceId?placeId=31804
,poi,31805,52.37504057,4.858381802,Amsterdam,Tramhalte jan van galen/adm de ruijter,Light Rail,http://tour-pedia.org/api/getPlaceDetails?id=31805,http://tour-pedia.org/api/getReviewsByPlaceId?placeId=31805
,poi,31806,52.371418,4.857823849,Amsterdam,Tramhalte admiraal de ruyterweg/jan Evertsenstr,Light Rail,http://tour-pedia.org/api/getPlaceDetails?id=31806,http://tour-pedia.org/api/getReviewsByPlaceId?placeId=31806
Admiraal de Ruijterweg,poi,31807,52.3773512,4.857684374,Amsterdam,Tramhalte 12/13/14,Light Rail,http://tour-pedia.org/api/getPlaceDetails?id=31807,http://tour-pedia.org/api/getReviewsByPlaceId?placeId=31807
,poi,31814,52.377679,4.858506,Amsterdam,Tramhalte De Rijpstraat,Train,http://tour-pedia.org/api/getPlaceDetails?id=31814,http://tour-pedia.org/api/getReviewsByPlaceId?placeId=31814
Paramaribostraat,poi,31815,52.36140205,4.854384084,Amsterdam,Paramaribostraat,Road,http://tour-pedia.org/api/getPlaceDetails?id=31815,http://tour-pedia.org/api/getReviewsByPlaceId?placeId=31815
Surinameplein,poi,31817,52.35802921,4.852523804,Amsterdam,Tram- en Bushalte Surinameplein,Light Rail,http://tour-pedia.org/api/getPlaceDetails?id=31817,http://tour-pedia.org/api/getReviewsByPlaceId?placeId=31817
Surinameplein,poi,31818,52.35805523,4.852124384,Amsterdam,Tramhalte Surinameplein,Bus Line,http://tour-pedia.org/api/getPlaceDetails?id=31818,http://tour-pedia.org/api/getReviewsByPlaceId?placeId=31818
,poi,31819,52.36259085,4.852062888,Amsterdam,Bus 15 Sloterdijk - Amsterdam Zuid,Bus Line,http://tour-pedia.org/api/getPlaceDetails?id=31819,http://tour-pedia.org/api/getReviewsByPlaceId?placeId=31819
Hoofdweg 4,poi,31822,52.35912206,4.85335855,Amsterdam,Bushalte Hoofdweg,Bus Station,http://tour-pedia.org/api/getPlaceDetails?id=31822,http://tour-pedia.org/api/getReviewsByPlaceId?placeId=31822
Hoofdweg,poi,31823,52.36130527,4.853274822,Amsterdam,Halte Corantijnstraat,Light Rail,http://tour-pedia.org/api/getPlaceDetails?id=31823,http://tour-pedia.org/api/getReviewsByPlaceId?placeId=31823
Overtoom,poi,31826,52.3579296,4.856224673,Amsterdam,Tramhalte Overtoomsesluis,Light Rail,http://tour-pedia.org/api/getPlaceDetails?id=31826,http://tour-pedia.org/api/getReviewsByPlaceId?placeId=31826
,poi,31827,52.351992,4.852541,Amsterdam,Sloterkade,Road,http://tour-pedia.org/api/getPlaceDetails?id=31827,http://tour-pedia.org/api/getReviewsByPlaceId?placeId=31827
,poi,31829,52.35695949,4.856385123,Amsterdam,Zocherstraat,Road,http://tour-pedia.org/api/getPlaceDetails?id=31829,http://tour-pedia.org/api/getReviewsByPlaceId?placeId=31829
Derde Schinkelstraat,poi,31830,52.35293927,4.854398058,Amsterdam,Derde Schinkelstraat,Road,http://tour-pedia.org/api/getPlaceDetails?id=31830,http://tour-pedia.org/api/getReviewsByPlaceId?placeId=31830
Amstelveenseweg,poi,31832,52.355054,4.855464,Amsterdam,Tramhalte Oranje Nassaulaan,Subway,http://tour-pedia.org/api/getPlaceDetails?id=31832,http://tour-pedia.org/api/getReviewsByPlaceId?placeId=31832
,poi,31834,52.35480814,4.856203407,Amsterdam,Intercity schiphol - Hilversum,Train,http://tour-pedia.org/api/getPlaceDetails?id=31834,http://tour-pedia.org/api/getReviewsByPlaceId?placeId=31834
Stadionplein,poi,31836,52.3439007,4.857018333,Amsterdam,Tramhalte Stadionplein,Light Rail,http://tour-pedia.org/api/getPlaceDetails?id=31836,http://tour-pedia.org/api/getReviewsByPlaceId?placeId=31836
,poi,31838,52.35092626,4.856507439,Amsterdam,Bus 15 Amsterdam Zuid - Sloterdijk,Bus Line,http://tour-pedia.org/api/getPlaceDetails?id=31838,http://tour-pedia.org/api/getReviewsByPlaceId?placeId=31838
,poi,31840,52.35130038,4.85669661,Amsterdam,Tramhalte Zeilstraat,Light Rail,http://tour-pedia.org/api/getPlaceDetails?id=31840,http://tour-pedia.org/api/getReviewsByPlaceId?placeId=31840
Zeilstraat,poi,31841,52.35168811,4.857179598,Amsterdam,Tramhalte Amstelveenseweg,Light Rail,http://tour-pedia.org/api/getPlaceDetails?id=31841,http://tour-pedia.org/api/getReviewsByPlaceId?placeId=31841
,poi,31843,52.345503,4.856475,Amsterdam,Stoplucht Stadionplein,Road,http://tour-pedia.org/api/getPlaceDetails?id=31843,http://tour-pedia.org/api/getReviewsByPlaceId?placeId=31843
Moving Target,poi,31844,52.33814484,4.853382111,Amsterdam,Metro 50 Gaasperplas - Isolatorweg,Subway,http://tour-pedia.org/api/getPlaceDetails?id=31844,http://tour-pedia.org/api/getReviewsByPlaceId?placeId=31844
,poi,31845,52.337832,4.849731,Amsterdam,Train Schipol,Light Rail,http://tour-pedia.org/api/getPlaceDetails?id=31845,http://tour-pedia.org/api/getReviewsByPlaceId?placeId=31845
,poi,31846,52.34379625,4.857246344,Amsterdam,Bus 197,Bus Line,http://tour-pedia.org/api/getPlaceDetails?id=31846,http://tour-pedia.org/api/getReviewsByPlaceId?placeId=31846
Amstelveenseweg,poi,31847,52.347704,4.85409,Amsterdam,Remise Karperweg,Light Rail,http://tour-pedia.org/api/getPlaceDetails?id=31847,http://tour-pedia.org/api/getReviewsByPlaceId?placeId=31847
Havenstraat 18,poi,31848,52.349232,4.854692,Amsterdam,Remise Havenstraat,Light Rail,http://tour-pedia.org/api/getPlaceDetails?id=31848,http://tour-pedia.org/api/getReviewsByPlaceId?placeId=31848
Rijksweg A10,poi,31851,52.3382235,4.859647751,Amsterdam,"A10 (S108, VUmc)",Road,http://tour-pedia.org/api/getPlaceDetails?id=31851,http://tour-pedia.org/api/getReviewsByPlaceId?placeId=31851
,poi,31854,52.338368,4.857341,Amsterdam,Bushalte Amstelveenseweg,Bus Line,http://tour-pedia.org/api/getPlaceDetails?id=31854,http://tour-pedia.org/api/getReviewsByPlaceId?placeId=31854
s108 638-674,poi,31857,52.337242,4.857331,Amsterdam,Buslijn 172 Amsterdam - Kudelstaart,Bus Line,http://tour-pedia.org/api/getPlaceDetails?id=31857,http://tour-pedia.org/api/getReviewsByPlaceId?placeId=31857
,poi,31858,52.33894859,4.84310903,Amsterdam,Connexxion Lijn 176,Bus Line,http://tour-pedia.org/api/getPlaceDetails?id=31858,http://tour-pedia.org/api/getReviewsByPlaceId?placeId=31858
,poi,31859,52.335948,4.85,Amsterdam,Metroplatform Amsterdam Zuid,Light Rail,http://tour-pedia.org/api/getPlaceDetails?id=31859,http://tour-pedia.org/api/getReviewsByPlaceId?placeId=31859
,poi,31860,52.339419,4.846657,Amsterdam,Red Urban Boot,Boat or Ferry,http://tour-pedia.org/api/getPlaceDetails?id=31860,http://tour-pedia.org/api/getReviewsByPlaceId?placeId=31860
,poi,31862,52.33870643,4.852303384,Amsterdam,Bus 197 to Schipol Plaza,Bus Line,http://tour-pedia.org/api/getPlaceDetails?id=31862,http://tour-pedia.org/api/getReviewsByPlaceId?placeId=31862
Jollenpad,poi,31863,52.33552,4.854094,Amsterdam,Halte Museum Tram Jollenpad,Light Rail,http://tour-pedia.org/api/getPlaceDetails?id=31863,http://tour-pedia.org/api/getReviewsByPlaceId?placeId=31863
Amstelveense weg,poi,31864,52.3312188,4.857314336,Amsterdam,Bushalte Koenenkade,Bus Station,http://tour-pedia.org/api/getPlaceDetails?id=31864,http://tour-pedia.org/api/getReviewsByPlaceId?placeId=31864
Ijsbaanpad,poi,31865,52.341018,4.852273,Amsterdam,Halte Ijsbaanpad,Light Rail,http://tour-pedia.org/api/getPlaceDetails?id=31865,http://tour-pedia.org/api/getReviewsByPlaceId?placeId=31865
koenenkade,poi,31866,52.33089406,4.856042862,Amsterdam,Koenenkade spoor Overgang,Light Rail,http://tour-pedia.org/api/getPlaceDetails?id=31866,http://tour-pedia.org/api/getReviewsByPlaceId?placeId=31866
Overschiestraat,poi,31868,52.34396558,4.839520454,Amsterdam,Overschiestraat,Road,http://tour-pedia.org/api/getPlaceDetails?id=31868,http://tour-pedia.org/api/getReviewsByPlaceId?placeId=31868
,poi,31869,52.33529238,4.860243663,Amsterdam,Bushalte VUmc,Bus Station,http://tour-pedia.org/api/getPlaceDetails?id=31869,http://tour-pedia.org/api/getReviewsByPlaceId?placeId=31869
,poi,31870,52.335356,4.8600984,Amsterdam,Bus176,Bus Line,http://tour-pedia.org/api/getPlaceDetails?id=31870,http://tour-pedia.org/api/getReviewsByPlaceId?placeId=31870
,poi,31871,52.33487701,4.860010147,Amsterdam,bus 310 naar schiphol,Bus Line,http://tour-pedia.org/api/getPlaceDetails?id=31871,http://tour-pedia.org/api/getReviewsByPlaceId?placeId=31871
Boelelaan,poi,31872,52.33542443,4.860414166,Amsterdam,Uitzicht Op De Buitenveldert Baan,Airport Terminal,http://tour-pedia.org/api/getPlaceDetails?id=31872,http://tour-pedia.org/api/getReviewsByPlaceId?placeId=31872
westlandgracht,poi,31873,52.3471135,4.8461127,Amsterdam,Lydia I Docking,Boat or Ferry,http://tour-pedia.org/api/getPlaceDetails?id=31873,http://tour-pedia.org/api/getReviewsByPlaceId?placeId=31873
Rijksweg A10,poi,31874,52.41477559,4.864282608,Amsterdam,Coentunnel,Road,http://tour-pedia.org/api/getPlaceDetails?id=31874,http://tour-pedia.org/api/getReviewsByPlaceId?placeId=31874
Coenhaven,poi,31875,52.40693089,4.859133245,Amsterdam,Coenhaven,Boat or Ferry,http://tour-pedia.org/api/getPlaceDetails?id=31875,http://tour-pedia.org/api/getReviewsByPlaceId?placeId=31875
,poi,31876,52.41507716,4.86177867,Amsterdam,De Tijd Zal Het Leeren,Boat or Ferry,http://tour-pedia.org/api/getPlaceDetails?id=31876,http://tour-pedia.org/api/getReviewsByPlaceId?placeId=31876
,poi,31877,52.409966,4.859609,Amsterdam,Coentje,Road,http://tour-pedia.org/api/getPlaceDetails?id=31877,http://tour-pedia.org/api/getReviewsByPlaceId?placeId=31877
Stellingweg,poi,31878,52.41705704,4.86811924,Amsterdam,Bushalte Standerdmolen,Bus Station,http://tour-pedia.org/api/getPlaceDetails?id=31878,http://tour-pedia.org/api/getReviewsByPlaceId?placeId=31878
,poi,31879,52.41298294,4.863651752,Amsterdam,In De File Voor De Boemtunnel,Road,http://tour-pedia.org/api/getPlaceDetails?id=31879,http://tour-pedia.org/api/getReviewsByPlaceId?placeId=31879
,poi,31881,52.41385651,4.865098953,Amsterdam,In De File Voor De Boemtunnel,Road,http://tour-pedia.org/api/getPlaceDetails?id=31881,http://tour-pedia.org/api/getReviewsByPlaceId?placeId=31881
Pier Afrika,poi,31884,52.40455214,4.859799041,Amsterdam,Ms. Acritas,Boat or Ferry,http://tour-pedia.org/api/getPlaceDetails?id=31884,http://tour-pedia.org/api/getReviewsByPlaceId?placeId=31884
,poi,31886,52.40651,4.86730503,Amsterdam,yacht in amsterdam,Boat or Ferry,http://tour-pedia.org/api/getPlaceDetails?id=31886,http://tour-pedia.org/api/getReviewsByPlaceId?placeId=31886
,poi,31888,52.395538,4.850836,Amsterdam,De Hydrograaf,Boat or Ferry,http://tour-pedia.org/api/getPlaceDetails?id=31888,http://tour-pedia.org/api/getReviewsByPlaceId?placeId=31888
,poi,31890,52.39122124,4.856306845,Amsterdam,Shurgard Amsterdam,Rental Car Location,http://tour-pedia.org/api/getPlaceDetails?id=31890,http://tour-pedia.org/api/getReviewsByPlaceId?placeId=31890
,poi,31891,52.394474,4.861929,Amsterdam,Ns Trein Terug Naar Zwijdrecht,Light Rail,http://tour-pedia.org/api/getPlaceDetails?id=31891,http://tour-pedia.org/api/getReviewsByPlaceId?placeId=31891
,poi,31892,52.394425,4.841994,Amsterdam,Isolatorweg,Train,http://tour-pedia.org/api/getPlaceDetails?id=31892,http://tour-pedia.org/api/getReviewsByPlaceId?placeId=31892
1014AK Amsterdam,poi,31893,52.39204913,4.855871201,Amsterdam,Bushalte Contactweg,Bus Station,http://tour-pedia.org/api/getPlaceDetails?id=31893,http://tour-pedia.org/api/getReviewsByPlaceId?placeId=31893
treinstel 7462,poi,31894,52.3913768,4.8578676,Amsterdam,Stoptrein Amsterdam-Beverwijk,Light Rail,http://tour-pedia.org/api/getPlaceDetails?id=31894,http://tour-pedia.org/api/getReviewsByPlaceId?placeId=31894
,poi,31896,52.39225565,4.839859037,Amsterdam,Transformatorweg/ Coentunnelweg,Road,http://tour-pedia.org/api/getPlaceDetails?id=31896,http://tour-pedia.org/api/getReviewsByPlaceId?placeId=31896
,poi,31897,52.389073,4.858917,Amsterdam,Trein Haarlem Amsterdam,Light Rail,http://tour-pedia.org/api/getPlaceDetails?id=31897,http://tour-pedia.org/api/getReviewsByPlaceId?placeId=31897
,poi,31898,52.38511175,4.863690622,Amsterdam,Bushalte Vredenhof,Bus Station,http://tour-pedia.org/api/getPlaceDetails?id=31898,http://tour-pedia.org/api/getReviewsByPlaceId?placeId=31898
1507 Zaandam,poi,31899,52.37496744,4.859653023,Amsterdam,In de Auto,Road,http://tour-pedia.org/api/getPlaceDetails?id=31899,http://tour-pedia.org/api/getReviewsByPlaceId?placeId=31899
,poi,31900,52.37091055,4.858919357,Amsterdam,Witte de withstraat,Road,http://tour-pedia.org/api/getPlaceDetails?id=31900,http://tour-pedia.org/api/getReviewsByPlaceId?placeId=31900
Admiraal de Ruijterweg 74,poi,31901,52.37150431,4.860548973,Amsterdam,"Halte Adm.de Ruiter Zone 5713, Lijn 12,13 & 14",Light Rail,http://tour-pedia.org/api/getPlaceDetails?id=31901,http://tour-pedia.org/api/getReviewsByPlaceId?placeId=31901
Witte de Withstraat,poi,31902,52.37146691,4.860576763,Amsterdam,Tramhalte Jan Evertsenstraat,Light Rail,http://tour-pedia.org/api/getPlaceDetails?id=31902,http://tour-pedia.org/api/getReviewsByPlaceId?placeId=31902
Kinkerstraat,poi,31905,52.36465015,4.862383524,Amsterdam,Tramhalte J.P.Heijestraat,Light Rail,http://tour-pedia.org/api/getPlaceDetails?id=31905,http://tour-pedia.org/api/getReviewsByPlaceId?placeId=31905
Witte de Withstraat,poi,31907,52.36500038,4.859540462,Amsterdam,Bus- / Tramhalte Witte de Withstraat,Light Rail,http://tour-pedia.org/api/getPlaceDetails?id=31907,http://tour-pedia.org/api/getReviewsByPlaceId?placeId=31907
Jan Pieter Heijestraat,poi,31908,52.36374552,4.863385696,Amsterdam,Jan Pieter Heijestraat,Road,http://tour-pedia.org/api/getPlaceDetails?id=31908,http://tour-pedia.org/api/getReviewsByPlaceId?placeId=31908
,poi,31911,52.364971,4.862885,Amsterdam,Halte J.P. Heijestraat,Light Rail,http://tour-pedia.org/api/getPlaceDetails?id=31911,http://tour-pedia.org/api/getReviewsByPlaceId?placeId=31911
,poi,31912,52.36144,4.861337,Amsterdam,Kanaalstraat Amsterdam,Road,http://tour-pedia.org/api/getPlaceDetails?id=31912,http://tour-pedia.org/api/getReviewsByPlaceId?placeId=31912
Jacob van Lennepkade,poi,31913,52.36334143,4.863449725,Amsterdam,Jacob van Lennepkade,Road,http://tour-pedia.org/api/getPlaceDetails?id=31913,http://tour-pedia.org/api/getReviewsByPlaceId?placeId=31913
Overtoom,poi,31915,52.36049333,4.866402369,Amsterdam,Tramhalte Overtoom,Light Rail,http://tour-pedia.org/api/getPlaceDetails?id=31915,http://tour-pedia.org/api/getReviewsByPlaceId?placeId=31915
,poi,31917,52.360447,4.866106,Amsterdam,Tramhalte J.P. Heijestraat,Light Rail,http://tour-pedia.org/api/getPlaceDetails?id=31917,http://tour-pedia.org/api/getReviewsByPlaceId?placeId=31917
Overtoom,poi,31918,52.35917649,4.861018503,Amsterdam,Overtoom,Road,http://tour-pedia.org/api/getPlaceDetails?id=31918,http://tour-pedia.org/api/getReviewsByPlaceId?placeId=31918
,poi,31922,52.35861089,4.861235561,Amsterdam,Saxenburgerstraat,Road,http://tour-pedia.org/api/getPlaceDetails?id=31922,http://tour-pedia.org/api/getReviewsByPlaceId?placeId=31922
,poi,31924,52.35160209,4.864253,Amsterdam,Tramhalte Lijn 16 Valeriusplein,Light Rail,http://tour-pedia.org/api/getPlaceDetails?id=31924,http://tour-pedia.org/api/getReviewsByPlaceId?placeId=31924
,poi,31925,52.34538,4.85840192,Amsterdam,Tramhalte Olympiaweg,Light Rail,http://tour-pedia.org/api/getPlaceDetails?id=31925,http://tour-pedia.org/api/getReviewsByPlaceId?placeId=31925
,poi,31926,52.33809,4.868867,Amsterdam,Tramhalte Parnassusweg,Light Rail,http://tour-pedia.org/api/getPlaceDetails?id=31926,http://tour-pedia.org/api/getReviewsByPlaceId?placeId=31926
,poi,31927,52.34622404,4.8660542,Amsterdam,Tramhalte Olympiaplein,Light Rail,http://tour-pedia.org/api/getPlaceDetails?id=31927,http://tour-pedia.org/api/getReviewsByPlaceId?placeId=31927
Moving target!,poi,31928,52.33926692,4.861685556,Amsterdam,Bus 245 Dapperstraat - Schiphol,Bus Line,http://tour-pedia.org/api/getPlaceDetails?id=31928,http://tour-pedia.org/api/getReviewsByPlaceId?placeId=31928
Olympiaweg,poi,31929,52.34766766,4.860256274,Amsterdam,Bushalte Olympiaweg,Bus Station,http://tour-pedia.org/api/getPlaceDetails?id=31929,http://tour-pedia.org/api/getReviewsByPlaceId?placeId=31929
Sloterkade / theophile de bockstraat,poi,31930,52.35109552,4.852869448,Amsterdam,Openstaande brug,Road,http://tour-pedia.org/api/getPlaceDetails?id=31930,http://tour-pedia.org/api/getReviewsByPlaceId?placeId=31930
Haarlemmermeerstation,poi,31931,52.34992026,4.85713266,Amsterdam,Bus 142,Bus Line,http://tour-pedia.org/api/getPlaceDetails?id=31931,http://tour-pedia.org/api/getReviewsByPlaceId?placeId=31931
,poi,31932,52.338469,4.863811,Amsterdam,Trein Schiphol-Almere,Light Rail,http://tour-pedia.org/api/getPlaceDetails?id=31932,http://tour-pedia.org/api/getReviewsByPlaceId?placeId=31932
De Boelelaan,poi,31934,52.3349682,4.868227138,Amsterdam,Bushalte de Boelelaan,Bus Station,http://tour-pedia.org/api/getPlaceDetails?id=31934,http://tour-pedia.org/api/getReviewsByPlaceId?placeId=31934
Van Der Boechorststraat,poi,31936,52.33066574,4.861737402,Amsterdam,Van Der Boechorststraat,Road,http://tour-pedia.org/api/getPlaceDetails?id=31936,http://tour-pedia.org/api/getReviewsByPlaceId?placeId=31936
Moving Target!,poi,31937,52.33533907,4.866170883,Amsterdam,Tram 24 VU - Amsterdam Centraal,Light Rail,http://tour-pedia.org/api/getPlaceDetails?id=31937,http://tour-pedia.org/api/getReviewsByPlaceId?placeId=31937
,poi,31938,52.32863299,4.861602368,Amsterdam,Bushalte Egelenbuurt,Bus Line,http://tour-pedia.org/api/getPlaceDetails?id=31938,http://tour-pedia.org/api/getReviewsByPlaceId?placeId=31938
,poi,31939,52.33808253,4.862543571,Amsterdam,Bus 142 Amsterdam - Wilnis,Bus Line,http://tour-pedia.org/api/getPlaceDetails?id=31939,http://tour-pedia.org/api/getReviewsByPlaceId?placeId=31939
